[
 {
  "id": 1,
  "name": "e삼성자동차운전전문학원 ",
  "phone": " 031-335-3805 ",
  "address": "경기도 용인시 처인구 평옥로 5 ",
  "type": "대형, 대형견인차, 소형견인차, 1종보통, 2종보통(수동), 2종보통(자동), 2종소형",
  "home page": "http://www.ssdrive.kr",
  "lat": 127.212853,
  "lng": 37.2244961
 },
 {
  "id": 2,
  "name": "강릉자동차운전전문학원 ",
  "phone": " 033-661-7777 ",
  "address": "강원도 강릉시 연곡면 동해대로 4100-28 (동덕리) ",
  "type": "1종보통, 2종보통(수동), 2종보통(자동)",
  "home page": "https://www.0336617777.modoo.at",
  "lat": 128.84477,
  "lng": 37.8493103
 },
 {
  "id": 3,
  "name": "영동자동차운전전문학원 ",
  "phone": " 033-648-4444 ",
  "address": "강원도 강릉시 회산로 408번길 4 (홍제동) ",
  "type": "1종보통, 2종보통(수동), 2종보통(자동)",
  "home page": "http://www.033-648-4444.kti114.net",
  "lat": 128.87114,
  "lng": 37.7440283
 },
 {
  "id": 4,
  "name": "설악산자동차운전전문학원 ",
  "phone": " 033-632-5000 ",
  "address": "강원도 고성군 토성면 풍곡길 63 ",
  "type": "대형, 소형견인차, 1종보통, 2종보통(수동), 2종보통(자동), 2종소형, 원동기",
  "home page": "http://www.newsc.co.kr",
  "lat": 128.543637,
  "lng": 38.2335238
 },
 {
  "id": 5,
  "name": "동해자동차운전전문학원 ",
  "phone": " 033-534-3303 ",
  "address": "강원도 동해시 새들길 20 (초구동) ",
  "type": "1종보통, 2종보통(수동), 2종보통(자동)",
  "home page": "https://www.blog.naver.com/ldh1659",
  "lat": 129.092381,
  "lng": 37.5770897
 },
 {
  "id": 6,
  "name": "추암자동차운전전문학원 ",
  "phone": " 033-522-2205 ",
  "address": "강원도 동해시 공단1로 80 (추암동) ",
  "type": "대형, 1종보통, 2종보통(수동), 2종보통(자동)",
  "lat": 129.148806,
  "lng": 37.4742282
 },
 {
  "id": 7,
  "name": "삼척자동차운전전문학원 ",
  "phone": " 033-574-0882-3 ",
  "address": "강원도 삼척시 오십천로 68 (등봉동) ",
  "type": "1종보통, 2종보통(수동), 2종보통(자동)",
  "lat": 129.128536,
  "lng": 37.4413719
 },
 {
  "id": 8,
  "name": "속초자동차운전전문학원 ",
  "phone": " 033-635-3366 ",
  "address": "강원도 속초시 하도문길5 (도문동) ",
  "type": "1종보통, 2종보통(수동), 2종보통(자동)",
  "home page": "https:www.0336353366.modoo.at/",
  "lat": 128.598495,
  "lng": 38.161662
 },
 {
  "id": 9,
  "name": "중부자동차운전전문학원 ",
  "phone": " 033-481-8850 ",
  "address": "강원도 양구군 남면 지픈개길 43 (심포리) ",
  "type": "대형, 대형견인차, 1종보통, 2종보통(수동), 2종보통(자동)",
  "home page": "http://www.jbdriving.com/",
  "lat": 127.98551,
  "lng": 38.0577903
 },
 {
  "id": 10,
  "name": "동남자동차운전전문학원 ",
  "phone": " 033-374-3771 ",
  "address": "강원도 영월군 영월읍 중앙로 224-21 (덕포리) ",
  "type": "대형, 1종보통, 2종보통(수동), 2종보통(자동)",
  "lat": 128.475989,
  "lng": 37.1723844
 },
 {
  "id": 11,
  "name": "매지자동차운전전문학원 ",
  "phone": " 033-762-2000 ",
  "address": "강원도 원주시 흥업면 북원로 1476-9 ",
  "type": "1종보통, 2종보통(수동), 2종보통(자동)",
  "home page": "http://www.mjdrive.co.kr",
  "lat": 127.911559,
  "lng": 37.2815641
 },
 {
  "id": 12,
  "name": "원주자동차운전전문학원 ",
  "phone": " 033-763-3456 ",
  "address": "강원도 원주시 학마을길 60 (관설동) ",
  "type": "1종보통, 2종보통(수동), 2종보통(자동)",
  "home page": "http://0337633456.wazzang.com",
  "lat": 127.979176,
  "lng": 37.3004503
 },
 {
  "id": 13,
  "name": "흥업자동차운전전문학원 ",
  "phone": " 033-763-7300 ",
  "address": "강원도 원주시 흥업면 승안동길 43 (대안리) ",
  "type": "대형, 소형견인차, 1종보통, 2종보통(수동), 2종보통(자동), 2종소형, 원동기",
  "home page": "http://www.hup.co.kr",
  "lat": 127.893735,
  "lng": 37.313307
 },
 {
  "id": 14,
  "name": "동송자동차운전전문학원 ",
  "phone": " 033-455-1500 ",
  "address": "강원도 철원군 동송읍 상노로 519 (오지리) ",
  "type": "대형, 대형견인차, 1종보통, 2종보통(수동), 2종보통(자동), 2종소형, 원동기",
  "home page": "http://www.dsdriving.co.kr",
  "lat": 127.227483,
  "lng": 38.1778735
 },
 {
  "id": 15,
  "name": "성문자동차운전전문학원 ",
  "phone": " 033-241-9100 ",
  "address": "강원도 춘천시 영서로 2528 (근화동) ",
  "type": "대형, 1종보통, 2종보통(수동), 2종보통(자동), 2종소형, 원동기",
  "lat": 127.715269,
  "lng": 37.8837854
 },
 {
  "id": 16,
  "name": "신촌자동차운전전문학원 ",
  "phone": " 033-261-3388 ",
  "address": "강원도 춘천시 동내면 동내로 67-1 (신촌리) ",
  "type": "1종보통, 2종보통(수동), 2종보통(자동)",
  "home page": "http://scdrivingschool.only114.co.kr",
  "lat": 127.759962,
  "lng": 37.8491807
 },
 {
  "id": 17,
  "name": "미래자동차운전전문학원 ",
  "phone": " 033-334-0038 ",
  "address": "강원도 평창군 진부면 간평길 79-28 (간평리) ",
  "type": "대형, 1종보통, 2종보통(수동), 2종보통(자동)",
  "lat": 128.586469,
  "lng": 37.6742573
 },
 {
  "id": 18,
  "name": "나래자동차운전전문학원 ",
  "phone": " 033-432-7400 ",
  "address": "강원도 홍천군 홍천읍 홍천로 753 ",
  "type": "대형, 1종보통, 2종보통(수동), 2종보통(자동)",
  "home page": "http://나래자동차운전전문학원.com/",
  "lat": 127.916103,
  "lng": 37.7126617
 },
 {
  "id": 19,
  "name": "홍천자동차운전전문학원 ",
  "phone": " 033-432-3100 ",
  "address": "강원도 홍천군 북방면 홍천로 205-31 (하화계리) ",
  "type": "대형, 소형견인차, 1종보통, 2종보통(수동), 2종보통(자동)",
  "home page": "http://blog.naver.com/hc5_7",
  "lat": 127.870889,
  "lng": 37.6933723
 },
 {
  "id": 20,
  "name": "신진자동차운전전문학원 ",
  "phone": " 033-342-7931 ",
  "address": "강원도 횡성군 횡성읍 입석로 118(남산리) ",
  "type": "1종보통, 2종보통(수동), 2종보통(자동)",
  "home page": "http://횡성신진자동차운전학원.fuv.kr",
  "lat": 127.991709,
  "lng": 37.4809118
 },
 {
  "id": 21,
  "name": "뉴강남자동차운전전문학원 ",
  "phone": " 031-584-0502 ",
  "address": "경기도 가평군 설악면 신천중앙로28번길 3-132 (신천리) ",
  "type": "1종보통, 2종보통(수동), 2종보통(자동)",
  "home page": "http://www.drive7942.com",
  "lat": 127.493307,
  "lng": 37.6669194
 },
 {
  "id": 22,
  "name": "우리자동차운전전문학원 ",
  "phone": " 031-582-0769 ",
  "address": "경기도 가평군 가평읍 태봉두밀로 34-71 (상색리) ",
  "type": "대형, 1종보통, 2종보통(수동), 2종보통(자동)",
  "home page": "http://www.wooridrive.com",
  "lat": 127.486804,
  "lng": 37.8045674
 },
 {
  "id": 23,
  "name": "명문자동차운전전문학원 ",
  "phone": " 031-921-5000 ",
  "address": "경기도 고양시 일산서구 탄중로275번길 52-35 (탄현동) ",
  "type": "대형, 대형견인차, 1종보통, 2종보통(수동), 2종보통(자동), 2종소형, 원동기",
  "home page": "http://www.myungmuncar.co.kr",
  "lat": 126.776908,
  "lng": 37.6973646
 },
 {
  "id": 24,
  "name": "신원자동차운전전문학원 ",
  "phone": " 031-923-0997 ",
  "address": "경기도 고양시 일산서구 덕산로 167 (가좌동) ",
  "type": "대형, 1종보통, 2종보통(수동), 2종보통(자동), 2종소형, 원동기",
  "home page": "http://www.driveworld.co.kr",
  "lat": 126.720961,
  "lng": 37.6949474
 },
 {
  "id": 25,
  "name": "신일자동차운전전문학원 ",
  "phone": " 031-977-1522 ",
  "address": "경기도 고양시 일산동구 성현로 268번길 93 (성석동) ",
  "type": "1종보통, 2종보통(수동), 2종보통(자동)",
  "home page": "http://www.shinil-car.co.kr",
  "lat": 126.814236,
  "lng": 37.7019166
 },
 {
  "id": 26,
  "name": "일산호수자동차운전전문학원 ",
  "phone": " 031-994-1451 ",
  "address": "경기도 고양시 일산동구 장대길 160-38 (장항동)  ",
  "type": "1종보통, 2종보통(자동)",
  "home page": "http://hsdriver.co.kr/",
  "lat": 126.762229,
  "lng": 37.6429981
 },
 {
  "id": 27,
  "name": "서울광명자동차운전전문학원 ",
  "phone": " 02-894-6000 ",
  "address": "경기도 광명시 안현로 81 (하안동) ",
  "type": "대형, 1종보통, 2종보통(수동), 2종보통(자동)",
  "home page": "http://www.sgcar.co.kr/",
  "lat": 126.87855,
  "lng": 37.4698077
 },
 {
  "id": 28,
  "name": "하남21C자동차운전전문학원 ",
  "phone": " 031-763-2221 ",
  "address": "경기도 광주시 회안대로 982 (송정동) ",
  "type": "1종보통, 2종보통(수동), 2종보통(자동), 2종소형",
  "home page": "http://www.hanam21c.co.kr/",
  "lat": 127.262846,
  "lng": 37.4324518
 },
 {
  "id": 29,
  "name": "광주제일자동차운전전문학원 ",
  "phone": " 031-761-1400 ",
  "address": "경기도 광주시 곤지암읍 삼리 612-10 (평촌길) ",
  "type": "대형, 소형견인차, 1종보통, 2종보통(수동), 2종보통(자동)",
  "home page": "http://www.jeildrive.kr",
  "lat": 127.332782,
  "lng": 37.3548884
 },
 {
  "id": 30,
  "name": "국제자동차운전전문학원 ",
  "phone": " 031-718-7777 ",
  "address": "경기도 광주시 오포읍 신현로 55-10 (신현리)  ",
  "type": "대형, 1종보통, 2종보통(수동), 2종보통(자동)",
  "home page": "http://01033944419.infom.kr/",
  "lat": 127.152982,
  "lng": 37.3616708
 },
 {
  "id": 31,
  "name": "모란자동차운전전문학원 ",
  "phone": " 031-765-9999 ",
  "address": "경기도 광주시 절골길 83 (장지동) ",
  "type": "1종보통, 2종보통(수동), 2종보통(자동)",
  "home page": "http://www.mrdrive.kr",
  "lat": 127.229433,
  "lng": 37.4054006
 },
 {
  "id": 32,
  "name": "성남자동차운전전문학원 ",
  "phone": " 031-767-6677 ",
  "address": "경기도 광주시 장지9길 140 (장지동) ",
  "type": "1종보통, 2종보통(수동), 2종보통(자동)",
  "home page": "http://sndrive.co.kr",
  "lat": 127.240455,
  "lng": 37.4047661
 },
 {
  "id": 33,
  "name": "김포자동차운전전문학원 ",
  "phone": " 1833-2122 ",
  "address": "경기도 김포시 양촌읍 석모리 17-2 ",
  "type": "1종보통, 2종보통(자동)",
  "home page": "http://www.g-car.kr",
  "lat": 126.652644,
  "lng": 37.6664207
 },
 {
  "id": 34,
  "name": "서부자동차운전전문학원 ",
  "phone": " 031-989-9011 ",
  "address": "경기도 김포시 양촌읍 김포한강4로 279-36 (석모리) ",
  "type": "대형, 1종보통, 2종보통(수동), 2종보통(자동)",
  "home page": "http://서부운전전문학원.kr/",
  "lat": 126.651372,
  "lng": 37.6501904
 },
 {
  "id": 35,
  "name": "한강자동차운전전문학원 ",
  "phone": " 031-996-6411 ",
  "address": "경기도 김포시 통진읍 율마로300번길 153 (가현리) ",
  "type": "대형, 1종보통, 2종보통(수동), 2종보통(자동), 2종소형",
  "home page": "http://www.hangangcar.co.kr/",
  "lat": 126.603816,
  "lng": 37.6814655
 },
 {
  "id": 36,
  "name": "NEW강동자동차운전전문학원 ",
  "phone": " 031-527-3333 ",
  "address": "경기도 남양주시 진접읍 진건오남로 1048 (연평리) ",
  "type": "대형, 1종보통, 2종보통(수동), 2종보통(자동)",
  "home page": "http://www.jeil82.com",
  "lat": 127.183657,
  "lng": 37.7123574
 },
 {
  "id": 37,
  "name": "동일자동차운전전문학원 ",
  "phone": " 031-595-3000 ",
  "address": "경기도 남양주시 경춘로 679-14 (일패동) ",
  "type": "대형, 대형견인차, 1종보통, 2종보통(수동), 2종보통(자동), 2종소형",
  "home page": "http://www.dongil-car.co.kr",
  "lat": 127.180037,
  "lng": 37.621761
 },
 {
  "id": 38,
  "name": "양원자동차운전전문학원 ",
  "phone": "1544-3499 ",
  "address": "경기도 남양주시 진접읍 경복대로 212번길 27 ",
  "type": "대형, 대형견인차, 1종보통, 2종보통(수동), 2종보통(자동), 2종소형, 원동기",
  "home page": "http://www.ywdrive.com/",
  "lat": 127.206339,
  "lng": 37.7165907
 },
 {
  "id": 39,
  "name": "신광자동차운전전문학원 ",
  "phone": " 031-862-6433 ",
  "address": "경기도 동두천시 벌마들로40번길 24-9 (상패동)  ",
  "type": "대형, 1종보통, 2종보통(수동), 2종보통(자동), 2종소형",
  "home page": "http://www.sinkwangdrive.com/",
  "lat": 127.040395,
  "lng": 37.9038904
 },
 {
  "id": 40,
  "name": "부천자동차운전전문학원 ",
  "phone": " 032-679-3000 ",
  "address": "경기도 부천시 오정구 성오로 157 (오정동) ",
  "type": "1종보통, 2종보통(수동), 2종보통(자동)",
  "home page": "http://www.bcdriver.co.kr",
  "lat": 126.797354,
  "lng": 37.5266837
 },
 {
  "id": 41,
  "name": "신진중동자동차운전전문학원 ",
  "phone": " 032-323-3388 ",
  "address": "경기도 부천시 평천로 651 (약대동) ",
  "type": "1종보통, 2종보통(수동), 2종보통(자동), 2종소형, 원동기",
  "home page": "http://www.sinjindrive.com/",
  "lat": 126.762806,
  "lng": 37.5155997
 },
 {
  "id": 42,
  "name": "뉴삼성자동차운전전문학원 ",
  "phone": " 031-296-7711 ",
  "address": "경기도 수원시 권선구 매송고색로 506번길 18 (오목천동) ",
  "type": "대형, 1종보통, 2종보통(수동), 2종보통(자동)",
  "home page": "http://www.newsamsung.net/",
  "lat": 126.960719,
  "lng": 37.2433295
 },
 {
  "id": 43,
  "name": "수원역자동차운전전문학원 ",
  "phone": " 031-296-9696 ",
  "address": "경기도 수원시 권선구 매송고색로 828-17 (평동) ",
  "type": "대형, 1종보통, 2종보통(수동), 2종보통(자동)",
  "home page": "http://www.driverschool.co.kr/",
  "lat": 126.996197,
  "lng": 37.2545362
 },
 {
  "id": 44,
  "name": "수원원천자동차운전전문학원 ",
  "phone": " 031-217-8833 ",
  "address": "경기도 수원시 영통구 중부대로462번길 23 (원천동) ",
  "type": "1종보통, 2종보통(수동), 2종보통(자동)",
  "home page": "http://www.wonchuncar.com",
  "lat": 127.065656,
  "lng": 37.2674848
 },
 {
  "id": 45,
  "name": "수원현대자동차운전전문학원 ",
  "phone": " 031-211-3431 ",
  "address": "경기도 수원시 영통구 중부대로 452 (원천동) ",
  "type": "대형, 1종보통, 2종보통(수동), 2종보통(자동), 2종소형, 원동기",
  "home page": "http://www.hddriving.co.kr",
  "lat": 127.064529,
  "lng": 37.2685937
 },
 {
  "id": 46,
  "name": "e현대자동차운전전문학원 ",
  "phone": " 031-433-5577 ",
  "address": "경기도 시흥시 서해안로 584-1 (정왕동) ",
  "type": "1종보통, 2종보통(수동), 2종보통(자동), 2종소형, 원동기",
  "home page": "http://www.shcardrive.co.kr/",
  "lat": 126.738047,
  "lng": 37.3700435
 },
 {
  "id": 47,
  "name": "한빛자동차운전전문학원 ",
  "phone": " 031-433-5500 ",
  "address": "경기도 시흥시 봉화로 49 (정왕동) ",
  "type": "대형, 1종보통, 2종보통(수동), 2종보통(자동)",
  "home page": "http://www.hbcar.co.kr",
  "lat": 126.739445,
  "lng": 37.3673526
 },
 {
  "id": 48,
  "name": "뉴현대자동차운전전문학원 ",
  "phone": " 032-886-8376 ",
  "address": "경기도 안산시 단원구 영전로 76 (대부동동) ",
  "type": "대형, 소형견인차, 1종보통, 2종보통(수동), 2종보통(자동)",
  "home page": "http://www.nhddrive.com/",
  "lat": 126.597603,
  "lng": 37.2508294
 },
 {
  "id": 49,
  "name": "단원자동차운전전문학원 ",
  "phone": "080-333-6600 ",
  "address": "경기도 안산시 단원구 대선로 40-5  ",
  "type": "대형, 대형견인차, 소형견인차, 1종보통, 2종보통(수동), 2종보통(자동), 2종소형, 원동기",
  "home page": "http://danwondrive.com/",
  "lat": 126.56764,
  "lng": 37.2671132
 },
 {
  "id": 50,
  "name": "안산대일자동차운전전문학원 ",
  "phone": " 031-413-1100 ",
  "address": "경기도 안산시 단원구 원포공원로 45 (초지동) ",
  "type": "1종보통, 2종보통(수동), 2종보통(자동)",
  "home page": "http://www.daeildrive.co.kr/",
  "lat": 126.808788,
  "lng": 37.3030986
 },
 {
  "id": 51,
  "name": "공도삼성자동차운전전문학원 ",
  "phone": " 031-655-6525 ",
  "address": "경기도 안성시 공도읍 봉기길 87 ",
  "type": "대형, 1종보통, 2종보통(자동)",
  "home page": "http://www.gddrive.kr/",
  "lat": 127.18802,
  "lng": 37.0001562
 },
 {
  "id": 52,
  "name": "안성신진자동차운전전문학원 ",
  "phone": " 031-674-5454 ",
  "address": "경기도 안성시 중리길 30 (중리동)  ",
  "type": "1종보통, 2종보통(수동), 2종보통(자동)",
  "home page": "http://www.assdrive.co.kr",
  "lat": 127.270746,
  "lng": 36.9860757
 },
 {
  "id": 53,
  "name": "명학자동차운전전문학원 ",
  "phone": " 031-468-6800 ",
  "address": "경기도 안양시 만안구 덕천로48번길 71 (안양동) ",
  "type": "1종보통, 2종보통(수동), 2종보통(자동), 2종소형, 원동기",
  "home page": "http://www.mhdrive.com/",
  "lat": 126.938724,
  "lng": 37.3866465
 },
 {
  "id": 54,
  "name": "안양자동차운전전문학원 ",
  "phone": " 031-472-3000 ",
  "address": "경기도 안양시 만안구 안양로 599 (석수동)  ",
  "type": "대형, 1종보통, 2종보통(수동), 2종보통(자동), 2종소형, 원동기",
  "home page": "http://www.aycar.co.kr/",
  "lat": 126.905921,
  "lng": 37.4222417
 },
 {
  "id": 55,
  "name": "강북삼성자동차운전전문학원 ",
  "phone": " 031-879-6500 ",
  "address": "경기도 양주시 백석읍 꿈나무로 93 (오산리)  ",
  "type": "1종보통, 2종보통(수동), 2종보통(자동)",
  "home page": "http://www.kbdrive.co.kr",
  "lat": 126.994684,
  "lng": 37.7987382
 },
 {
  "id": 56,
  "name": "북부중앙자동차운전전문학원 ",
  "phone": " 031-841-9420 ",
  "address": "경기도 양주시 화합로 1221 (회정동) ",
  "type": "대형, 소형견인차, 1종보통, 2종보통(수동), 2종보통(자동)",
  "home page": "http://www.bbdrive114.co.kr",
  "lat": 127.052045,
  "lng": 37.8478653
 },
 {
  "id": 57,
  "name": "한미자동차운전전문학원 ",
  "phone": " 031-847-4000 ",
  "address": "경기도 양주시 삼숭로 129번길 11 (삼숭동) ",
  "type": "대형, 대형견인차, 소형견인차, 구난차, 1종보통, 2종보통(수동), 2종보통(자동), 2종소형, 원동기",
  "home page": "http://www.hanmidrive.com/",
  "lat": 127.098649,
  "lng": 37.80323
 },
 {
  "id": 58,
  "name": "광원자동차운전전문학원 ",
  "phone": " 031-771-7100 ",
  "address": "경기도 양평군 양평읍 중앙로 244-26 (도곡리)  ",
  "type": "1종보통, 2종보통(수동), 2종보통(자동)",
  "home page": "http://www.양평운전면허.com",
  "lat": 127.515023,
  "lng": 37.4889915
 },
 {
  "id": 59,
  "name": "뉴신진자동차운전전문학원 ",
  "phone": " 031-886-5700 ",
  "address": "경기도 여주시 여주남로 236 ",
  "type": "1종보통, 2종보통(수동), 2종보통(자동)",
  "home page": "https://sjdriving.modoo.at/",
  "lat": 127.606999,
  "lng": 37.2689807
 },
 {
  "id": 60,
  "name": "연천자동차운전전문학원 ",
  "phone": " 031-834-9880 ",
  "address": "경기도 연천군 연천읍 통현길 100 (통현리)  ",
  "type": "대형, 소형견인차, 1종보통, 2종보통(수동), 2종보통(자동)",
  "home page": "http://www.ycdrive.com",
  "lat": 127.081899,
  "lng": 38.0622252
 },
 {
  "id": 61,
  "name": "신삼성자동차운전전문학원 ",
  "phone": " 031-223-3328 ",
  "address": "경기도 오산시 북삼미로 74 (내삼미동) ",
  "type": "대형, 대형견인차, 소형견인차, 1종보통, 2종보통(수동), 2종보통(자동), 2종소형",
  "home page": "http://sssdrive.kr/",
  "lat": 127.063039,
  "lng": 37.1824819
 },
 {
  "id": 62,
  "name": "카카오자동차운전전문학원 ",
  "phone": "1599-1101 ",
  "address": "경기도 오산시 가장로 439번지(가장동) ",
  "type": "대형, 1종보통, 2종보통(자동), 2종소형",
  "home page": "http://carcarodrive.co.kr/",
  "lat": 127.028369,
  "lng": 37.16205
 },
 {
  "id": 63,
  "name": "동탄자동차운전전문학원 ",
  "phone": "031-333-9995 ",
  "address": "경기도 용인시 처인구 남사읍 경기동로 121 ",
  "type": "1종보통, 2종보통(자동)",
  "home page": "http://edtdrive.co.kr/",
  "lat": 127.141587,
  "lng": 37.1460485
 },
 {
  "id": 64,
  "name": "수지풍덕자동차운전전문학원 ",
  "phone": " 031-261-3333 ",
  "address": "경기도 용인시 수지구 수풍로37번길 56 (풍덕천동)  ",
  "type": "1종보통, 2종보통(수동), 2종보통(자동)",
  "home page": "http://www.pungdukcar.com/",
  "lat": 127.084891,
  "lng": 37.3304639
 },
 {
  "id": 65,
  "name": "신분당자동차운전전문학원 ",
  "phone": " 031-333-7917 ",
  "address": "경기도 용인시 처인구 모현면 오산로13번길 64 (오산리) ",
  "type": "대형, 1종보통, 2종보통(수동), 2종보통(자동)",
  "home page": "http://www.sinbundangcar.com",
  "lat": 127.162674,
  "lng": 37.3333749
 },
 {
  "id": 66,
  "name": "용인신갈자동차운전전문학원 ",
  "phone": " 031-281-6363 ",
  "address": "경기도 용인시 기흥구 백남준로 28-13 (상갈동) ",
  "type": "1종보통, 2종보통(수동), 2종보통(자동)",
  "home page": "http://www.newdrive.co.kr",
  "lat": 127.115116,
  "lng": 37.2682676
 },
 {
  "id": 67,
  "name": "용인자동차운전전문학원 ",
  "phone": " 031-339-7660 ",
  "address": "경기도 용인시 처인구 양지면 주북로 122 ",
  "type": "대형, 1종보통, 2종보통(수동), 2종보통(자동)",
  "home page": "http://www.yongincar.co.kr",
  "lat": 127.245334,
  "lng": 37.2476624
 },
 {
  "id": 68,
  "name": "신현대자동차운전전문학원 ",
  "phone": " 031-421-5000 ",
  "address": "경기도 의왕시 경수대로 321 (오전동) ",
  "type": "대형, 1종보통, 2종보통(수동), 2종보통(자동), 2종소형, 원동기",
  "home page": "http://www.shinhyundai.co.kr/",
  "lat": 126.968346,
  "lng": 37.354393
 },
 {
  "id": 69,
  "name": "이천자동차운전전문학원 ",
  "phone": " 031-631-7777 ",
  "address": "경기도 이천시 부발읍 황무로1605번길 109-73 (죽당리) ",
  "type": "1종보통, 2종보통(수동), 2종보통(자동), 2종소형",
  "home page": "https://6317777.modoo.at",
  "lat": 127.520489,
  "lng": 37.2750051
 },
 {
  "id": 70,
  "name": "동양자동차운전전문학원 ",
  "phone": " 031-632-1223 ",
  "address": "경기도 이천시 부발읍 중부대로 1732-3 ",
  "type": "1종보통, 2종보통(수동), 2종보통(자동)",
  "home page": "http://www.dyangdrive.co.kr/",
  "lat": 127.498957,
  "lng": 37.2893157
 },
 {
  "id": 71,
  "name": "이천제일자동차운전전문학원 ",
  "phone": " 031-638-0707 ",
  "address": "경기도 이천시 신둔면 원적로512번길 256-23 (도봉리) ",
  "type": "대형, 1종보통, 2종보통(수동), 2종보통(자동)",
  "home page": "http://www.jeildriving.com",
  "lat": 127.451481,
  "lng": 37.3121845
 },
 {
  "id": 72,
  "name": "장호원자동차운전전문학원 ",
  "phone": " 031-643-8000 ",
  "address": "경기도 이천시 장호원읍 장여로 229-33 (노탑리)  ",
  "type": "대형, 소형견인차, 1종보통, 2종보통(수동), 2종보통(자동)",
  "home page": "http://jhwcar.co.kr/",
  "lat": 127.624911,
  "lng": 37.137247
 },
 {
  "id": 73,
  "name": "신진자동차운전전문학원 ",
  "phone": "1644-8677 ",
  "address": "경기도 파주시 월롱면 정문로293번길 93 ",
  "type": "대형, 대형견인차, 소형견인차, 1종보통, 2종보통(자동), 2종소형, 원동기",
  "home page": "http://1644-8677.com",
  "lat": 126.812461,
  "lng": 37.7890098
 },
 {
  "id": 74,
  "name": "올리브자동차운전전문학원 ",
  "phone": " 031-948-8600 ",
  "address": "경기도 파주시 탄현면 장릉로 5-23 (갈현리)  ",
  "type": "대형, 대형견인차, 1종보통, 2종보통(수동), 2종보통(자동), 2종소형, 원동기",
  "home page": "http://www.olivedriving.co.kr",
  "lat": 126.716988,
  "lng": 37.7730873
 },
 {
  "id": 75,
  "name": "자유로자동차운전전문학원 ",
  "phone": " 031-947-9944 ",
  "address": "경기도 파주시 교하로1290번길 120-40 (다율동) ",
  "type": "대형, 대형견인차, 소형견인차, 구난차, 1종보통, 2종보통(수동), 2종보통(자동), 2종소형, 원동기",
  "home page": "http://www.jayuway.kr",
  "lat": 126.737518,
  "lng": 37.7450882
 },
 {
  "id": 76,
  "name": "정다운자동차운전전문학원 ",
  "phone": " 031-954-5858 ",
  "address": "경기도 파주시 중앙로 74-1 ",
  "type": "대형, 대형견인차, 소형견인차, 1종보통, 2종보통(수동), 2종보통(자동), 2종소형, 원동기",
  "home page": "http://www.pajucar.co.kr/",
  "lat": 126.794982,
  "lng": 37.7508519
 },
 {
  "id": 77,
  "name": "하예서부자동차운전전문학원 ",
  "phone": "1522-3208 ",
  "address": "경기도 파주시 파주읍 학당말길 191 ",
  "type": "대형, 1종보통, 2종보통(수동), 2종보통(자동)",
  "home page": "http://www.hayedrive.com/",
  "lat": 126.821158,
  "lng": 37.8400172
 },
 {
  "id": 78,
  "name": "한수자동차운전전문학원 ",
  "phone": " 031-943-0037 ",
  "address": "경기도 파주시 교하로 507 (동패동) ",
  "type": "대형, 1종보통, 2종보통(수동), 2종보통(자동)",
  "home page": "http://www.한수자동차운전전문학원.com",
  "lat": 126.721003,
  "lng": 37.704714
 },
 {
  "id": 79,
  "name": "대동자동차운전전문학원 ",
  "phone": " 031-655-5252 ",
  "address": "경기도 평택시 팽성읍 안정순환로 21 (송화리) ",
  "type": "1종보통, 2종보통(수동), 2종보통(자동)",
  "home page": "http://www.ddrive.kr/",
  "lat": 127.051244,
  "lng": 36.9530759
 },
 {
  "id": 80,
  "name": "삼성자동차운전전문학원 ",
  "phone": " 031-665-4770 ",
  "address": "경기도 평택시 노루댕이1길 18-5 (장당동)  ",
  "type": "대형, 소형견인차, 1종보통, 2종보통(수동), 2종보통(자동), 2종소형, 원동기",
  "home page": "http://www.ssda.co.kr",
  "lat": 127.063747,
  "lng": 37.0438265
 },
 {
  "id": 81,
  "name": "송탄역자동차운전전문학원 ",
  "phone": " 031-655-0992 ",
  "address": "경기도 평택시 목천로72-17 ",
  "type": "대형, 1종보통, 2종보통(자동)",
  "home page": "http://drivingacademy.co.kr/",
  "lat": 127.057159,
  "lng": 37.0885767
 },
 {
  "id": 82,
  "name": "신동아자동차운전전문학원 ",
  "phone": " 031-663-5300 ",
  "address": "경기도 평택시 서탄면 발안로 927 (내천리) ",
  "type": "대형, 1종보통, 2종보통(수동), 2종보통(자동)",
  "home page": "http://sdonga.com/",
  "lat": 127.004984,
  "lng": 37.1256324
 },
 {
  "id": 83,
  "name": "중앙자동차운전전문학원 ",
  "phone": " 031-656-0007 ",
  "address": "경기도 평택시 울성길35 (신대동) ",
  "type": "1종보통, 2종보통(자동)",
  "home page": "http://www.jadrive.co.kr/",
  "lat": 127.071826,
  "lng": 37.0039404
 },
 {
  "id": 84,
  "name": "평택안중자동차운전전문학원 ",
  "phone": " 031-682-1140 ",
  "address": "경기도 평택시 안중읍 서동대로 1673-56 ",
  "type": "대형, 1종보통, 2종보통(수동), 2종보통(자동)",
  "home page": "http://www.ptajdrive.co.kr/",
  "lat": 126.937297,
  "lng": 36.9923562
 },
 {
  "id": 85,
  "name": "강북제일자동차운전전문학원 ",
  "phone": " 031-534-7600 ",
  "address": "경기도 포천시 영북면 문암길 20-1 (문암리) ",
  "type": "대형, 1종보통, 2종보통(수동), 2종보통(자동)",
  "home page": "http://kjeildrive.co.kr/",
  "lat": 127.273083,
  "lng": 38.0809299
 },
 {
  "id": 86,
  "name": "그린자동차운전전문학원 ",
  "phone": " 031-542-2900 ",
  "address": "경기도 포천시 소흘읍 호국로 223-38 (이동교리)  ",
  "type": "대형, 소형견인차, 1종보통, 2종보통(수동), 2종보통(자동)",
  "home page": "http://www.gdts.co.kr",
  "lat": 127.123583,
  "lng": 37.7950621
 },
 {
  "id": 87,
  "name": "대진자동차운전전문학원 ",
  "phone": " 031-541-6181 ",
  "address": "경기도 포천시 군내면 포천로909번길 31 (유교리)  ",
  "type": "대형, 1종보통, 2종보통(수동), 2종보통(자동)",
  "home page": "http://www.djdrive.kr",
  "lat": 127.194305,
  "lng": 37.8519616
 },
 {
  "id": 88,
  "name": "행운자동차운전전문학원 ",
  "phone": " 031-535-9911 ",
  "address": "경기도 포천시 신북면 중앙로 332-34 (가채리) ",
  "type": "대형, 1종보통, 2종보통(수동), 2종보통(자동)",
  "home page": "http://www.hwolle.co.kr",
  "lat": 127.215077,
  "lng": 37.9151538
 },
 {
  "id": 89,
  "name": "상록수자동차운전전문학원 ",
  "phone": " 031-355-7360 ",
  "address": "경기도 화성시 비봉면 하저자안로 207 (자안리)  ",
  "type": "대형, 소형견인차, 1종보통, 2종보통(수동), 2종보통(자동)",
  "home page": "http://www.ssdriving.co.kr",
  "lat": 126.874353,
  "lng": 37.1966844
 },
 {
  "id": 90,
  "name": "아시아자동차운전전문학원 ",
  "phone": " 031-239-8477 ",
  "address": "경기도 화성시 경기대로 979 (병점동) ",
  "type": "1종보통, 2종보통(수동), 2종보통(자동)",
  "home page": "http://www.asiadrive.co.kr/",
  "lat": 127.036798,
  "lng": 37.2029644
 },
 {
  "id": 91,
  "name": "화성향남자동차운전전문학원 ",
  "phone": " 031-351-8900 ",
  "address": "경기도 화성시 우정읍 3.1만세로 199-17 ",
  "type": "대형, 대형견인차, 소형견인차, 1종보통, 2종보통(수동), 2종보통(자동), 2종소형",
  "home page": "http://www.bonodrive.co.kr/",
  "lat": 126.828536,
  "lng": 37.0914464
 },
 {
  "id": 92,
  "name": "거제자동차운전전문학원 ",
  "phone": " 055-632-1320 ",
  "address": "경상남도 거제시 제산로2길 11 (양정동) ",
  "type": "대형, 1종보통, 2종보통(수동), 2종보통(자동), 2종소형",
  "lat": 128.640156,
  "lng": 34.8880615
 },
 {
  "id": 93,
  "name": "옥포자동차운전전문학원 ",
  "phone": " 055-687-7171 ",
  "address": "경상남도 거제시 옥포대첩로 272-13 (덕포동) ",
  "type": "1종보통, 2종보통(수동), 2종보통(자동)",
  "lat": 128.705241,
  "lng": 34.906877
 },
 {
  "id": 94,
  "name": "거창자동차운전전문학원 ",
  "phone": " 055-942-6754 ",
  "address": "경상남도 거창군 거창읍 죽전4길 119-22 (가지리) ",
  "type": "1종보통, 2종보통(수동), 2종보통(자동)",
  "lat": 127.911045,
  "lng": 35.6957309
 },
 {
  "id": 95,
  "name": "현대자동차운전전문학원 ",
  "phone": " 055-943-9595 ",
  "address": "경상남도 거창군 거창읍 새동네2길 53 (대평리) ",
  "type": "대형, 1종보통, 2종보통(수동), 2종보통(자동)",
  "lat": 127.928931,
  "lng": 35.688033
 },
 {
  "id": 96,
  "name": "고성자동차운전전문학원 ",
  "phone": " 055-673-5454 ",
  "address": "경상남도 고성군 고성읍 남해안대로 2305 (신월리) ",
  "type": "1종보통, 2종보통(수동), 2종보통(자동)",
  "lat": 128.342951,
  "lng": 34.9515699
 },
 {
  "id": 97,
  "name": "김해자동차운전전문학원 ",
  "phone": " 055-321-2001 ",
  "address": "경상남도 김해시 김해대로 2569 (어방동) ",
  "type": "1종보통, 2종보통(수동), 2종보통(자동)",
  "home page": "http://www.fine-car.com",
  "lat": 128.908153,
  "lng": 35.2295095
 },
 {
  "id": 98,
  "name": "장유자동차운전전문학원 ",
  "phone": " 055-314-0808 ",
  "address": "경상남도 김해시 주촌면 금관대로 751 (농소리) ",
  "type": "대형, 대형견인차, 1종보통, 2종보통(수동), 2종보통(자동), 2종소형",
  "home page": "http://www.jycar.co.kr",
  "lat": 128.830652,
  "lng": 35.2077886
 },
 {
  "id": 99,
  "name": "한일자동차운전전문학원 ",
  "phone": " 055-334-3001 ",
  "address": "경상남도 김해시 분성로3번길 235-34 (내동) ",
  "type": "대형, 1종보통, 2종보통(수동), 2종보통(자동)",
  "lat": 128.862613,
  "lng": 35.2480349
 },
 {
  "id": 100,
  "name": "밀양자동차운전전문학원 ",
  "phone": " 055-355-6001 ",
  "address": "경상남도 밀양시 부북면 청운로 200 (덕곡리) ",
  "type": "대형, 1종보통, 2종보통(수동), 2종보통(자동)",
  "home page": "https://www.blog.naver.com/myda6001",
  "lat": 128.713808,
  "lng": 35.5149652
 },
 {
  "id": 101,
  "name": "현대자동차운전전문학원 ",
  "phone": " 055-354-8881 ",
  "address": "경상남도 밀양시 용평로 79 (용평동) ",
  "type": "대형, 1종보통, 2종보통(수동), 2종보통(자동)",
  "lat": 128.762714,
  "lng": 35.4953364
 },
 {
  "id": 102,
  "name": "사천자동차운전전문학원 ",
  "phone": " 055-854-5415 ",
  "address": "경상남도 사천시 용현면 공단4로 28-36 (선진리) ",
  "type": "대형, 대형견인차, 1종보통, 2종보통(수동), 2종보통(자동), 2종소형",
  "lat": 128.04646,
  "lng": 35.0495097
 },
 {
  "id": 103,
  "name": "삼천포자동차운전전문학원 ",
  "phone": " 055-833-3233 ",
  "address": "경상남도 사천시 삼천포대교로 566 (좌룡동) ",
  "type": "1종보통, 2종보통(수동), 2종보통(자동)",
  "lat": 128.078329,
  "lng": 34.9480845
 },
 {
  "id": 104,
  "name": "국제자동차운전전문학원 ",
  "phone": " 055-388-7080 ",
  "address": "경상남도 양산시 덕계북길 25(덕계동) ",
  "type": "대형, 대형견인차, 1종보통, 2종보통(수동), 2종보통(자동)",
  "home page": "http://www.cafe.naver.com/kukjedrive",
  "lat": 129.157577,
  "lng": 35.3834054
 },
 {
  "id": 105,
  "name": "남양산자동차운전전문학원 ",
  "phone": " 055-367-1472 ",
  "address": "경상남도 양산시 동면 남양산2길 26 (석산리) ",
  "type": "대형, 대형견인차, 1종보통, 2종보통(수동), 2종보통(자동), 2종소형",
  "lat": 129.029965,
  "lng": 35.3269162
 },
 {
  "id": 106,
  "name": "대성자동차운전전문학원 ",
  "phone": " 055-375-2580 ",
  "address": "경상남도 양산시 상북면 양산대로 1266 (소토리) ",
  "type": "대형, 1종보통, 2종보통(수동), 2종보통(자동)",
  "lat": 129.051212,
  "lng": 35.3818602
 },
 {
  "id": 107,
  "name": "풍원자동차운전전문학원 ",
  "phone": " 055-389-2521 ",
  "address": "경상남도 양산시 용주로 21 (용당동) ",
  "type": "대형, 대형견인차, 구난차, 1종보통, 2종보통(수동), 2종보통(자동)",
  "home page": "http://www.pwdrive.com",
  "lat": 129.180931,
  "lng": 35.4281673
 },
 {
  "id": 108,
  "name": "도원성자동차운전전문학원 ",
  "phone": " 055-746-3666 ",
  "address": "경상남도 진주시 남강로 155-26 (평거동) ",
  "type": "대형, 1종보통, 2종보통(수동), 2종보통(자동)",
  "home page": "http://www.dowonsung.com",
  "lat": 128.049196,
  "lng": 35.1631504
 },
 {
  "id": 109,
  "name": "서부경남자동차운전전문학원 ",
  "phone": " 055-759-9866 ",
  "address": "경상남도 진주시 금곡면 정자천로15번길 15 (정자리) ",
  "type": "대형, 1종보통, 2종보통(수동), 2종보통(자동), 2종소형",
  "home page": "http://sbcar.co.kr",
  "lat": 128.172368,
  "lng": 35.1383364
 },
 {
  "id": 110,
  "name": "정오자동차운전전문학원 ",
  "phone": " 055-761-8888 ",
  "address": "경상남도 진주시 대신로 642-34 (장재동) ",
  "type": "대형, 1종보통, 2종보통(수동), 2종보통(자동)",
  "home page": "https://jungocar.modoo.at",
  "lat": 128.108762,
  "lng": 35.2175453
 },
 {
  "id": 111,
  "name": "창신자동차운전전문학원 ",
  "phone": " 055-752-9555 ",
  "address": "경상남도 진주시 대신로 196번길 20 (상평동) ",
  "type": "1종보통, 2종보통(수동), 2종보통(자동)",
  "lat": 128.119636,
  "lng": 35.1776173
 },
 {
  "id": 112,
  "name": "창녕자동차운전전문학원 ",
  "phone": " 055-533-6900 ",
  "address": "경상남도 창녕군 창녕읍 탐하로 254 (탐하리) ",
  "type": "1종보통, 2종보통(수동), 2종보통(자동)",
  "lat": 128.49563,
  "lng": 35.5333032
 },
 {
  "id": 113,
  "name": "동창원자동차운전전문학원 ",
  "phone": " 055-251-5004 ",
  "address": "경상남도 창원시 의창구 동읍 동읍로 234-1 ",
  "type": "대형, 대형견인차, 1종보통, 2종보통(수동), 2종보통(자동), 2종소형",
  "home page": "http://www.bestdrive.co.kr",
  "lat": 128.674261,
  "lng": 35.2960986
 },
 {
  "id": 114,
  "name": "마창자동차운전전문학원 ",
  "phone": " 055-291-8383 ",
  "address": "경상남도 창원시 의창구 팔용로 315 (반계동) ",
  "type": "대형, 1종보통, 2종보통(수동), 2종보통(자동)",
  "home page": "http://www.machangcar.co.kr",
  "lat": 128.605144,
  "lng": 35.2483332
 },
 {
  "id": 115,
  "name": "부림자동차운전전문학원 ",
  "phone": " 055-271-7900 ",
  "address": "경상남도 창원시 마산합포구 진북면 진북산업로 142 (망곡리) ",
  "type": "대형, 1종보통, 2종보통(수동), 2종보통(자동), 2종소형",
  "home page": "http://www.burimdrive.com",
  "lat": 128.486923,
  "lng": 35.1290212
 },
 {
  "id": 116,
  "name": "부성자동차운전전문학원 ",
  "phone": " 055-551-9996~7 ",
  "address": "경상남도 창원시 진해구 어은로 32 (죽곡동) ",
  "type": "1종보통, 2종보통(수동), 2종보통(자동)",
  "home page": "http://www.bsdrive.co.kr",
  "lat": 128.728568,
  "lng": 35.1143363
 },
 {
  "id": 117,
  "name": "창원자동차운전전문학원 ",
  "phone": " 055-237-7070 ",
  "address": "경상남도 창원시 의창구 차상로150번길 78 (팔용동) ",
  "type": "1종보통, 2종보통(수동), 2종보통(자동)",
  "home page": "http://www.changwoncar.co.kr",
  "lat": 128.640548,
  "lng": 35.2333942
 },
 {
  "id": 118,
  "name": "한백자동차운전전문학원 ",
  "phone": " 055-271-1500 ",
  "address": "경상남도 창원시 마산합포구 진동면 삼진의거대로 830 (교동리) ",
  "type": "대형, 1종보통, 2종보통(수동), 2종보통(자동)",
  "home page": "http://www.hanbaekcar.co.kr",
  "lat": 128.501692,
  "lng": 35.1280101
 },
 {
  "id": 119,
  "name": "신세계자동차운전전문학원 ",
  "phone": " 055-641-6800 ",
  "address": "경상남도 통영시 광도면 남해안대로 1160-60 (노산리) ",
  "type": "대형, 1종보통, 2종보통(수동), 2종보통(자동), 2종소형",
  "lat": 128.417263,
  "lng": 34.8952247
 },
 {
  "id": 120,
  "name": "한려자동차운전전문학원  ",
  "phone": " 055-649-0211 ",
  "address": "경상남도 통영시 광도면 남해안대로 1130-19 (노산리) ",
  "type": "1종보통, 2종보통(수동), 2종보통(자동)",
  "lat": 128.417136,
  "lng": 34.8935227
 },
 {
  "id": 121,
  "name": "하동자동차운전전문학원 ",
  "phone": " 055-883-8811 ",
  "address": "경상남도 하동군 하동읍 화심길 116 (화심리) ",
  "type": "1종보통, 2종보통(수동), 2종보통(자동)",
  "lat": 127.733487,
  "lng": 35.0877295
 },
 {
  "id": 122,
  "name": "함양자동차운전전문학원 ",
  "phone": " 055-962-3241 ",
  "address": "경상남도 함양군 함양읍 함양남서로 996-11 (이은리) ",
  "type": "대형, 대형견인차, 구난차, 1종보통, 2종보통(수동), 2종보통(자동), 2종소형, 원동기",
  "home page": "http://www.hydrive.kr",
  "lat": 127.738664,
  "lng": 35.508528
 },
 {
  "id": 123,
  "name": "남부자동차운전전문학원 ",
  "phone": " 053-811-1101 ",
  "address": "경상북도 경산시 중방로 124 (계양동) ",
  "type": "1종보통, 2종보통(수동), 2종보통(자동)",
  "home page": "http://tgnambu.co.kr/",
  "lat": 128.746925,
  "lng": 35.8327017
 },
 {
  "id": 124,
  "name": "수성자동차운전전문학원 ",
  "phone": " 053-818-4000 ",
  "address": "경상북도 경산시 임당로 106 (임당동) ",
  "type": "대형, 1종보통, 2종보통(수동), 2종보통(자동), 2종소형, 원동기",
  "home page": "http://www.scar.co.kr",
  "lat": 128.745651,
  "lng": 35.8452818
 },
 {
  "id": 125,
  "name": "쌍용자동차운전전문학원 ",
  "phone": " 053-854-2800 ",
  "address": "경상북도 경산시 진량읍 대학로 1333 (부기리) ",
  "type": "대형, 1종보통, 2종보통(수동), 2종보통(자동)",
  "home page": "http://www.ssy280.com",
  "lat": 128.822365,
  "lng": 35.8977141
 },
 {
  "id": 126,
  "name": "하양자동차운전전문학원 ",
  "phone": " 053-851-5900 ",
  "address": "경상북도 경산시 진량읍 금호강변로 860 (부기리) ",
  "type": "1종보통, 2종보통(수동), 2종보통(자동)",
  "home page": "http://www.hayangcar.co.kr",
  "lat": 128.825103,
  "lng": 35.9074584
 },
 {
  "id": 127,
  "name": "경주자동차운전전문학원 ",
  "phone": " 054-761-3001 ",
  "address": "경상북도 경주시 안강읍 새안현로 1144 (강교리) ",
  "type": "대형, 구난차, 1종보통, 2종보통(수동), 2종보통(자동)",
  "home page": "http://www.bestdrive.ne.kr",
  "lat": 129.137202,
  "lng": 35.9685107
 },
 {
  "id": 128,
  "name": "제일자동차운전전문학원 ",
  "phone": " 054-773-3500 ",
  "address": "경상북도 경주시 천북면 산업로 4566-21 (신당리) ",
  "type": "1종보통, 2종보통(수동), 2종보통(자동)",
  "lat": 129.235486,
  "lng": 35.8847632
 },
 {
  "id": 129,
  "name": "천마자동차운전전문학원 ",
  "phone": " 054-774-1234 ",
  "address": "경상북도 경주시 광중길 14 (용강동) ",
  "type": "대형, 1종보통, 2종보통(수동), 2종보통(자동)",
  "lat": 129.225412,
  "lng": 35.8796702
 },
 {
  "id": 130,
  "name": "현대자동차운전전문학원 ",
  "phone": " 054-745-8383 ",
  "address": "경상북도 경주시 현곡면 용담로 413-3 (하구리) ",
  "type": "대형, 1종보통, 2종보통(수동), 2종보통(자동)",
  "home page": "http://www.hddriver.co.kr",
  "lat": 129.18351,
  "lng": 35.8806193
 },
 {
  "id": 131,
  "name": "공단자동차운전전문학원 ",
  "phone": " 054-472-7007 ",
  "address": "경상북도 구미시 옥계2공단로 238 (구포동) ",
  "type": "대형, 1종보통, 2종보통(수동), 2종보통(자동)",
  "home page": "http://www.gd7007.kr",
  "lat": 128.415398,
  "lng": 36.1256972
 },
 {
  "id": 132,
  "name": "구미자동차운전전문학원 ",
  "phone": " 054-452-1188 ",
  "address": "경상북도 구미시 고아읍 선산대로 468 (송림리) ",
  "type": "1종보통, 2종보통(수동), 2종보통(자동)",
  "home page": "http://www.gmcar.kr",
  "lat": 128.354807,
  "lng": 36.1709671
 },
 {
  "id": 133,
  "name": "남구미자동차운전전문학원 ",
  "phone": " 054-464-5522",
  "address": "경상북도 구미시 오태1길 74 (오태동) ",
  "type": "1종보통, 2종보통(수동), 2종보통(자동), 원동기",
  "lat": 128.35622,
  "lng": 36.0786121
 },
 {
  "id": 134,
  "name": "인동자동차운전전문학원 ",
  "phone": " 054-475-7000 ",
  "address": "경상북도 구미시 인동가산로 384-26 (구평동) ",
  "type": "1종보통, 2종보통(자동)",
  "home page": "http://www.indongcar.co.kr",
  "lat": 128.45273,
  "lng": 36.0900618
 },
 {
  "id": 135,
  "name": "최신자동차운전전문학원 ",
  "phone": " 054-443-8282 ",
  "address": "경상북도 구미시 고아읍 원대로9길 11 (원호리) ",
  "type": "대형, 1종보통, 2종보통(수동), 2종보통(자동)",
  "lat": 128.320597,
  "lng": 36.168231
 },
 {
  "id": 136,
  "name": "김천현대자동차운전전문학원 ",
  "phone": " 054-432-3355 ",
  "address": "경상북도 김천시 시청로 114 (신음동) ",
  "type": "대형, 1종보통, 2종보통(수동), 2종보통(자동)",
  "home page": "http://www.hdcar.co.kr",
  "lat": 128.118055,
  "lng": 36.1381294
 },
 {
  "id": 137,
  "name": "중앙자동차운전전문학원 ",
  "phone": " 054-442-7900 ",
  "address": "경상북도 김천시 아포읍 송선로 140 (송천리) ",
  "type": "대형, 대형견인차, 소형견인차, 1종보통, 2종보통(수동), 2종보통(자동), 2종소형, 원동기",
  "home page": "http://중앙자동차운전전문학원.com",
  "lat": 128.285929,
  "lng": 36.1475305
 },
 {
  "id": 138,
  "name": "영강자동차운전전문학원 ",
  "phone": " 054-553-0057 ",
  "address": "경상북도 문경시 산양면 중앙로 360-8 (반곡리) ",
  "type": "1종보통, 2종보통(수동), 2종보통(자동)",
  "lat": 128.215334,
  "lng": 36.6115818
 },
 {
  "id": 139,
  "name": "봉화자동차운전전문학원 ",
  "phone": " 054-673-7777 ",
  "address": "경상북도 봉화군 봉화읍 봉화로 1001-29 (해저리) ",
  "type": "1종보통, 2종보통(수동), 2종보통(자동)",
  "lat": 128.720378,
  "lng": 36.8941086
 },
 {
  "id": 140,
  "name": "상주새한일자동차운전전문학원 ",
  "phone": " 054-533-9988 ",
  "address": "경상북도 상주시 경상대로 2725 (가장동) ",
  "type": "1종보통, 2종보통(수동), 2종보통(자동)",
  "lat": 128.151225,
  "lng": 36.3906825
 },
 {
  "id": 141,
  "name": "새한자동차운전전문학원 ",
  "phone": " 054-858-5896 ",
  "address": "경상북도 안동시 강남로 108 (수상동) ",
  "type": "대형, 대형견인차, 1종보통, 2종보통(수동), 2종보통(자동), 2종소형",
  "home page": "http://www.shdrive.kr",
  "lat": 128.713096,
  "lng": 36.5501567
 },
 {
  "id": 142,
  "name": "옥동현대자동차운전전문학원 ",
  "phone": " 054-857-5588 ",
  "address": "경상북도 안동시 은행나무로 46-29 (옥동) ",
  "type": "1종보통, 2종보통(수동), 2종보통(자동)",
  "home page": "http://www.odcar.net",
  "lat": 128.689365,
  "lng": 36.5655152
 },
 {
  "id": 143,
  "name": "화성자동차운전전문학원 ",
  "phone": " 054-859-1661 ",
  "address": "경상북도 안동시 앙실3길 19 (수하동) ",
  "type": "대형, 1종보통, 2종보통(수동), 2종보통(자동)",
  "home page": "http://www.hwasungcar.com",
  "lat": 128.677062,
  "lng": 36.5570119
 },
 {
  "id": 144,
  "name": "영덕진성자동차운전전문학원 ",
  "phone": " 054-734-2802 ",
  "address": "경상북도 영덕군 영덕읍 남산길 22-6 (남산리) ",
  "type": "1종보통, 2종보통(수동), 2종보통(자동)",
  "lat": 129.371549,
  "lng": 36.4018154
 },
 {
  "id": 145,
  "name": "대영자동차운전전문학원 ",
  "phone": " 054-636-9188 ",
  "address": "경상북도 영주시 영봉로 35-15 (휴천동) ",
  "type": "대형, 1종보통, 2종보통(수동), 2종보통(자동)",
  "lat": 128.639787,
  "lng": 36.8182665
 },
 {
  "id": 146,
  "name": "영남자동차운전전문학원 ",
  "phone": " 054-636-8318 ",
  "address": "경상북도 영주시 조암로 89 (조암동) ",
  "type": "1종보통, 2종보통(수동), 2종보통(자동)",
  "lat": 128.636352,
  "lng": 36.796915
 },
 {
  "id": 147,
  "name": "영주자동차운전전문학원 ",
  "phone": " 054-633-3737 ",
  "address": "경상북도 영주시 필두길50번길 99 (상줄동) ",
  "type": "대형, 1종보통, 2종보통(수동), 2종보통(자동)",
  "lat": 128.583443,
  "lng": 36.833635
 },
 {
  "id": 148,
  "name": "영주제일자동차운전전문학원 ",
  "phone": " 054-632-1771 ",
  "address": "경상북도 영주시 장수로 300 ",
  "type": "1종보통, 2종보통(자동)",
  "home page": "http://youngjudriving.modoo.at/",
  "lat": 128.591496,
  "lng": 36.7916307
 },
 {
  "id": 149,
  "name": "성림자동차운전전문학원 ",
  "phone": " 054-332-7777 ",
  "address": "경상북도 영천시 금호읍 금호로 338-40 ",
  "type": "1종보통, 2종보통(자동)",
  "home page": "http://www.carschool.kr/",
  "lat": 128.895511,
  "lng": 35.9375187
 },
 {
  "id": 150,
  "name": "현대자동차운전전문학원 ",
  "phone": " 054-334-3697 ",
  "address": "경상북도 영천시 망정1길 80 (망정동) ",
  "type": "1종보통, 2종보통(수동), 2종보통(자동)",
  "lat": 128.949776,
  "lng": 35.9783424
 },
 {
  "id": 151,
  "name": "예천자동차운전전문학원 ",
  "phone": " 054-654-3759 ",
  "address": "경상북도 예천군 예천읍 도효자로 62-15 (우계리) ",
  "type": "1종보통, 2종보통(수동), 2종보통(자동)",
  "lat": 128.468281,
  "lng": 36.6771525
 },
 {
  "id": 152,
  "name": "제일자동차운전전문학원 ",
  "phone": " 054-781-7007 ",
  "address": "경상북도 울진군 울진읍 연지길 62 (연지리) ",
  "type": "1종보통, 2종보통(수동), 2종보통(자동)",
  "lat": 129.409936,
  "lng": 36.9990415
 },
 {
  "id": 153,
  "name": "의성경의자동차운전전문학원 ",
  "phone": " 054-832-9400 ",
  "address": "경상북도 의성군 의성읍 홍술로 89-23 (원당리) ",
  "type": "1종보통, 2종보통(수동), 2종보통(자동)",
  "lat": 128.68685,
  "lng": 36.3562476
 },
 {
  "id": 154,
  "name": "화양자동차운전전문학원 ",
  "phone": " 054-373-7800 ",
  "address": "경상북도 청도군 화양읍 북문길 46 (동상리) ",
  "type": "1종보통, 2종보통(수동), 2종보통(자동)",
  "lat": 128.705193,
  "lng": 35.6520997
 },
 {
  "id": 155,
  "name": "문화자동차운전전문학원 ",
  "phone": " 054-874-3113 ",
  "address": "경상북도 청송군 진보면 못안길 65 (이촌리) ",
  "type": "1종보통, 2종보통(수동), 2종보통(자동)",
  "home page": "www.cooldriving.co.kr",
  "lat": 129.0308,
  "lng": 36.5359182
 },
 {
  "id": 156,
  "name": "왜관자동차운전전문학원 ",
  "phone": " 054-973-8100 ",
  "address": "경상북도 칠곡군 약목면 무림4길 15-20 (무림리) ",
  "type": "대형, 1종보통, 2종보통(수동), 2종보통(자동)",
  "home page": "http://blog.naver.com/shinyunoo",
  "lat": 128.3838,
  "lng": 36.0231114
 },
 {
  "id": 157,
  "name": "우리자동차운전전문학원 ",
  "phone": " 054-972-7777 ",
  "address": "경상북도 칠곡군 북삼읍 경호천서길 72 (율2리) ",
  "type": "1종보통, 2종보통(수동), 2종보통(자동)",
  "lat": 128.338655,
  "lng": 36.050883
 },
 {
  "id": 158,
  "name": "경포자동차운전전문학원 ",
  "phone": " 054-284-9997 ",
  "address": "경상북도 포항시 남구 동해면 약전로115번길 69 (신정리) ",
  "type": "1종보통, 2종보통(수동), 2종보통(자동)",
  "home page": "https://blog.naver.com/kp9997",
  "lat": 129.449574,
  "lng": 35.9757048
 },
 {
  "id": 159,
  "name": "연화재자동차운전전문학원 ",
  "phone": " 054-262-3020 ",
  "address": "경상북도 포항시 북구 흥해읍 새마을로 272-30 ",
  "type": "1종보통, 2종보통(자동)",
  "home page": "http://godrive.kr",
  "lat": 129.332581,
  "lng": 36.0499715
 },
 {
  "id": 160,
  "name": "포항경북자동차운전전문학원 ",
  "phone": " 054-285-0888 ",
  "address": "경상북도 포항시 남구 연일로 143 (생지리) ",
  "type": "대형, 1종보통, 2종보통(수동), 2종보통(자동)",
  "home page": "http://kbcar.kr",
  "lat": 129.344598,
  "lng": 35.998723
 },
 {
  "id": 161,
  "name": "포항현대자동차운전전문학원 ",
  "phone": " 054-277-5000 ",
  "address": "경상북도 포항시 남구 오천읍 철강로 862 (세계리) ",
  "type": "1종보통, 2종보통(수동), 2종보통(자동)",
  "home page": "http://www.phcar.net",
  "lat": 129.419743,
  "lng": 35.9636423
 },
 {
  "id": 162,
  "name": "흥해경북자동차운전전문학원 ",
  "phone": " 054-262-8888 ",
  "address": "경상북도 포항시 북구 흥해읍 덕실마을길3번길 62 (용전리) ",
  "type": "대형, 대형견인차, 1종보통, 2종보통(수동), 2종보통(자동)",
  "home page": "http://kbcar.kr",
  "lat": 129.338802,
  "lng": 36.121073
 },
 {
  "id": 163,
  "name": "금호자동차운전전문학원 ",
  "phone": " 062-953-8400 ",
  "address": "광주광역시 광산구 임방울대로 612 (도천동) ",
  "type": "대형, 1종보통, 2종보통(수동), 2종보통(자동)",
  "home page": "http://www.kumhocar.co.kr",
  "lat": 126.828385,
  "lng": 35.2117148
 },
 {
  "id": 164,
  "name": "기아자동차운전전문학원 ",
  "phone": " 062-959-7000 ",
  "address": "광주광역시 광산구 하남대로 127-30 ",
  "type": "1종보통, 2종보통(자동)",
  "home page": "http://www.기아자동차운전학원.kr",
  "lat": 126.806548,
  "lng": 35.1812251
 },
 {
  "id": 165,
  "name": "대우자동차운전전문학원 ",
  "phone": " 062-952-8000 ",
  "address": "광주광역시 광산구 하남지실길 46 (산정동) ",
  "type": "1종보통, 2종보통(수동), 2종보통(자동)",
  "home page": "https://daewoodriving.modoo.at/",
  "lat": 126.79849,
  "lng": 35.1677727
 },
 {
  "id": 166,
  "name": "양동상무자동차운전전문학원 ",
  "phone": " 062-943-1212 ",
  "address": "광주광역시 광산구 대산로 275 (양동) ",
  "type": "대형, 대형견인차, 구난차, 1종보통, 2종보통(수동), 2종보통(자동)",
  "home page": "http://sangmoo.org",
  "lat": 126.659358,
  "lng": 35.1475759
 },
 {
  "id": 167,
  "name": "영진자동차운전전문학원 ",
  "phone": " 062-951-5100 ",
  "address": "광주광역시 광산구 목련로 372-19 (신가동) ",
  "type": "대형, 대형견인차, 1종보통, 2종보통(수동), 2종보통(자동), 2종소형",
  "home page": "http://www.yjcdrive.co.kr",
  "lat": 126.834434,
  "lng": 35.1808251
 },
 {
  "id": 168,
  "name": "용성자동차운전전문학원 ",
  "phone": " 062-943-8101 ",
  "address": "광주광역시 광산구 양동길 50-8 (양동)  ",
  "type": "대형, 1종보통, 2종보통(수동), 2종보통(자동)",
  "home page": "http://www.ys-academy.com",
  "lat": 126.660328,
  "lng": 35.1543478
 },
 {
  "id": 169,
  "name": "제일자동차운전전문학원 ",
  "phone": " 062-954-2222 ",
  "address": "광주광역시 광산구 풍영정길 241-17 (신창동) ",
  "type": "대형, 소형견인차, 1종보통, 2종보통(수동), 2종보통(자동), 2종소형",
  "home page": "http://www.jaildriving.com/",
  "lat": 126.855872,
  "lng": 35.1884691
 },
 {
  "id": 170,
  "name": "OK자동차운전전문학원 ",
  "phone": " 062-675-7100 ",
  "address": "광주광역시 남구 송암로130번길 7 (송하동) ",
  "type": "대형, 1종보통, 2종보통(수동), 2종보통(자동)",
  "home page": "http://www.okcardrive.co.kr",
  "lat": 126.870373,
  "lng": 35.1151605
 },
 {
  "id": 171,
  "name": "한국자동차운전전문학원 ",
  "phone": " 062-674-1600 ",
  "address": "광주광역시 남구 서문대로 541 (송하동) ",
  "type": "1종보통, 2종보통(수동), 2종보통(자동)",
  "home page": "http://www.blog.naver.com/hankuk1901",
  "lat": 126.88996,
  "lng": 35.1106553
 },
 {
  "id": 172,
  "name": "신진자동차운전전문학원 ",
  "phone": " 062-234-4343 ",
  "address": "광주광역시 동구 소태길 78 (소태동) ",
  "type": "1종보통, 2종보통(수동), 2종보통(자동)",
  "home page": "http://www.cafe.naver.com/kjsinjin",
  "lat": 126.941354,
  "lng": 35.1204444
 },
 {
  "id": 173,
  "name": "대성자동차운전전문학원 ",
  "phone": " 062-513-6500 ",
  "address": "광주광역시 북구 동운로32번길 20 (동림동) ",
  "type": "대형, 1종보통, 2종보통(수동), 2종보통(자동)",
  "home page": "http://www.dsdl.or.kr",
  "lat": 126.857012,
  "lng": 35.1775551
 },
 {
  "id": 174,
  "name": "일곡금호자동차운전전문학원 ",
  "phone": " 062-576-9400 ",
  "address": "광주광역시 북구 모룡대길 26 (일곡동) ",
  "type": "1종보통, 2종보통(수동), 2종보통(자동)",
  "home page": "http://www.igkumhocar.co.kr",
  "lat": 126.898052,
  "lng": 35.2171032
 },
 {
  "id": 175,
  "name": "상무자동차운전전문학원 ",
  "phone": " 062-606-7114 ",
  "address": "광주광역시 서구 하남대로 550 (동천동) ",
  "type": "대형, 소형견인차, 1종보통, 2종보통(수동), 2종보통(자동)",
  "home page": "http://sangmoo.org",
  "lat": 126.853034,
  "lng": 35.173332
 },
 {
  "id": 176,
  "name": "고려자동차운전전문학원 ",
  "phone": " 053-633-7777 ",
  "address": "대구광역시 달서구 상화로 116 (대곡동) ",
  "type": "대형, 1종보통, 2종보통(수동), 2종보통(자동)",
  "home page": "https://www.korda.co.kr",
  "lat": 128.527093,
  "lng": 35.808209
 },
 {
  "id": 177,
  "name": "성당자동차운전전문학원 ",
  "phone": " 053-563-4000 ",
  "address": "대구광역시 달서구 와룡로33길 51 (감삼동) ",
  "type": "1종보통, 2종보통(수동), 2종보통(자동)",
  "home page": "http://www.sungdang.co.kr",
  "lat": 128.531392,
  "lng": 35.8471562
 },
 {
  "id": 178,
  "name": "남대구자동차운전전문학원 ",
  "phone": " 053-611-9900 ",
  "address": "대구광역시 달성군 현풍면 비슬로 738 (성하리) ",
  "type": "대형, 1종보통, 2종보통(수동), 2종보통(자동)",
  "home page": "http://www.ndcar.co.kr",
  "lat": 128.440171,
  "lng": 35.7031767
 },
 {
  "id": 179,
  "name": "푸른자동차운전전문학원 ",
  "phone": " 053-587-6600 ",
  "address": "대구광역시 달성군 다사읍 서재로12길 53 ",
  "type": "대형, 1종보통, 2종보통(수동), 2종보통(자동)",
  "home page": "http://www.gobluecar.co.kr/",
  "lat": 128.492446,
  "lng": 35.8656779
 },
 {
  "id": 180,
  "name": "동양자동차운전전문학원 ",
  "phone": " 053-314-8888 ",
  "address": "대구광역시 북구 매천로2길 58-52 (팔달동) ",
  "type": "대형, 대형견인차, 1종보통, 2종보통(수동), 2종보통(자동), 2종소형, 원동기",
  "home page": "http://zst.kr",
  "lat": 128.545952,
  "lng": 35.895893
 },
 {
  "id": 181,
  "name": "안전자동차운전전문학원 ",
  "phone": " 053-956-1515 ",
  "address": "대구광역시 북구 복현로8길 35 (복현동)  ",
  "type": "1종보통, 2종보통(수동), 2종보통(자동)",
  "home page": "http://www.mysafety.co.kr",
  "lat": 128.626324,
  "lng": 35.8959676
 },
 {
  "id": 182,
  "name": "청구자동차운전전문학원 ",
  "phone": " 053-382-9999 ",
  "address": "대구광역시 북구 검단로 166 (검단동) ",
  "type": "1종보통, 2종보통(수동), 2종보통(자동)",
  "home page": "http://www.ckcar.co.kr",
  "lat": 128.624456,
  "lng": 35.9096901
 },
 {
  "id": 183,
  "name": "서대구자동차운전전문학원 ",
  "phone": " 053-573-9000 ",
  "address": "대구광역시 서구 와룡로 98길 3  ",
  "type": "1종보통, 2종보통(자동)",
  "home page": "http://www.sddriving.com/",
  "lat": 128.53997,
  "lng": 35.8763789
 },
 {
  "id": 184,
  "name": "대경자동차운전전문학원 ",
  "phone": " 053-795-3000 ",
  "address": "대구광역시 수성구 달구벌대로659길 31 (사월동) ",
  "type": "1종보통, 2종보통(수동), 2종보통(자동)",
  "home page": "http://www.tkdrive3000.cafe24.com",
  "lat": 128.71806,
  "lng": 35.8380827
 },
 {
  "id": 185,
  "name": "삼우동서자동차운전전문학원 ",
  "phone": " 053-793-4404 ",
  "address": "대구광역시 수성구 달구벌대로 3289-7 ",
  "type": "1종보통, 2종보통(자동)",
  "home page": "http://www.samwoodongseocar.co.kr/index.php",
  "lat": 128.71651,
  "lng": 35.8380869
 },
 {
  "id": 186,
  "name": "신탄자동차운전전문학원 ",
  "phone": " 042-934-9000 ",
  "address": "대전광역시 대덕구 남경마을로33번길 32-20 (신탄진동) ",
  "type": "1종보통, 2종보통(수동), 2종보통(자동)",
  "home page": "http://www.shintancar.co.kr",
  "lat": 127.43314,
  "lng": 36.4414681
 },
 {
  "id": 187,
  "name": "문화자동차운전전문학원 ",
  "phone": " 042-284-3399, 7000 ",
  "address": "대전광역시 동구 용운로151번길 85 (용운동) ",
  "type": "대형, 1종보통, 2종보통(수동), 2종보통(자동)",
  "home page": "http://www.cooldriving.co.kr",
  "lat": 127.461234,
  "lng": 36.3316108
 },
 {
  "id": 188,
  "name": "흥일자동차운전전문학원 ",
  "phone": " 042-271-6688 ",
  "address": "대전광역시 동구 산서로1660번길 24 ",
  "type": "대형, 소형견인차, 1종보통, 2종보통(자동), 2종소형",
  "home page": "www.hidrive.co.kr",
  "lat": 127.462362,
  "lng": 36.2886565
 },
 {
  "id": 189,
  "name": "삼성자동차운전전문학원 ",
  "phone": " 042-584-6116 ",
  "address": "대전광역시 서구 구봉로 456 (정림동) ",
  "type": "1종보통, 2종보통(수동), 2종보통(자동), 2종소형",
  "home page": "http://www.smdrive.co.kr",
  "lat": 127.369218,
  "lng": 36.3012804
 },
 {
  "id": 190,
  "name": "효성자동차운전전문학원 ",
  "phone": " 042-546-8000 ",
  "address": "대전광역시 서구 벌곡로1384번길 38 (가수원동) ",
  "type": "대형, 1종보통, 2종보통(수동), 2종보통(자동), 2종소형",
  "home page": "http://www.hsdrive.com",
  "lat": 127.356371,
  "lng": 36.3039417
 },
 {
  "id": 191,
  "name": "대성자동차운전전문학원 ",
  "phone": " 042-242-6565 ",
  "address": "대전광역시 중구 유등천동로 792 (증촌동) ",
  "type": "대형, 1종보통, 2종보통(수동), 2종보통(자동)",
  "home page": "http://www.dsvc.biz",
  "lat": 127.405085,
  "lng": 36.3479626
 },
 {
  "id": 192,
  "name": "금사자동차운전전문학원 ",
  "phone": " 051-525-2600 ",
  "address": "부산광역시 금정구 공단서로8번길 49 (금사동)  ",
  "type": "1종보통, 2종보통(자동)",
  "lat": 129.113247,
  "lng": 35.2164708
 },
 {
  "id": 193,
  "name": "현대자동차운전전문학원 ",
  "phone": " 051-508-5111 ",
  "address": "부산광역시 금정구 청룡예전로 16 (청룡동) ",
  "type": "1종보통, 2종보통(수동), 2종보통(자동)",
  "lat": 129.091858,
  "lng": 35.2746953
 },
 {
  "id": 194,
  "name": "기장아세아자동차운전전문학원 ",
  "phone": " 051-728-7288 ",
  "address": "부산광역시 기장군 정관면 곰내길 603-33 (매학리)  ",
  "type": "1종보통, 2종보통(수동), 2종보통(자동)",
  "home page": "http://www.asiacar.co.kr/",
  "lat": 129.169731,
  "lng": 35.3170192
 },
 {
  "id": 195,
  "name": "동일자동차운전전문학원 ",
  "phone": " 051-557-3636 ",
  "address": "부산광역시 동래구 수안로 58 (수안동) ",
  "type": "1종보통, 2종보통(수동), 2종보통(자동)",
  "home page": "http://www.yesdi.co.kr/",
  "lat": 129.085615,
  "lng": 35.1995397
 },
 {
  "id": 196,
  "name": "동호자동차운전전문학원 ",
  "phone": " 051-634-5300 ",
  "address": "부산광역시 부산진구 황령대로17번길 30 (범천동)  ",
  "type": "1종보통, 2종보통(자동)",
  "home page": "http://www.okdongho.co.kr/",
  "lat": 129.06116,
  "lng": 35.1493135
 },
 {
  "id": 197,
  "name": "서면자동차운전전문학원 ",
  "phone": " 051-804-3480 ",
  "address": "부산광역시 부산진구 진남로356번길 56-11 (전포동) ",
  "type": "1종보통, 2종보통(자동)",
  "home page": "http://www.sm-car.co.kr/",
  "lat": 129.073053,
  "lng": 35.158807
 },
 {
  "id": 198,
  "name": "영동자동차운전전문학원 ",
  "phone": " 051-891-5500 ",
  "address": "부산광역시 부산진구 백양관문로 60 (당감동) ",
  "type": "대형, 1종보통, 2종보통(자동), 2종소형, 원동기",
  "home page": "http://youngcar.co.kr/board/",
  "lat": 129.030014,
  "lng": 35.1653391
 },
 {
  "id": 199,
  "name": "구포북부자동차운전전문학원 ",
  "phone": " 051-332-4511 ",
  "address": "부산광역시 북구 구남로15번길 25 (구포동) ",
  "type": "1종보통, 2종보통(자동)",
  "home page": "http://www.bbdrive.co.kr/",
  "lat": 128.992459,
  "lng": 35.1994407
 },
 {
  "id": 200,
  "name": "대성자동차운전전문학원 ",
  "phone": " 051-301-1900 ",
  "address": "부산광역시 사상구 사상로367번길 42 (덕포동) ",
  "type": "1종보통, 2종보통(수동), 2종보통(자동)",
  "lat": 128.982442,
  "lng": 35.1780311
 },
 {
  "id": 201,
  "name": "대우자동차운전전문학원 ",
  "phone": " 051-322-7700 ",
  "address": "부산광역시 사상구 학감대로192번길 1 (학장동) ",
  "type": "1종보통, 2종보통(수동), 2종보통(자동)",
  "lat": 128.989988,
  "lng": 35.1485113
 },
 {
  "id": 202,
  "name": "학장자동차운전전문학원 ",
  "phone": " 051-316-3131 ",
  "address": "부산광역시 사상구 장인로 59 (학장동)  ",
  "type": "대형, 1종보통, 2종보통(수동), 2종보통(자동)",
  "home page": "http://hjcar.foredu.kr/",
  "lat": 128.976265,
  "lng": 35.1436262
 },
 {
  "id": 203,
  "name": "남영자동차운전전문학원  ",
  "phone": " 051-207-7965 ",
  "address": "부산광역시 사하구 을숙도대로 709 (신평동) ",
  "type": "1종보통, 2종보통(수동), 2종보통(자동), 2종소형, 원동기",
  "home page": "http://www.nycar.co.kr/",
  "lat": 128.982147,
  "lng": 35.0856836
 },
 {
  "id": 204,
  "name": "서부산자동차운전전문학원 ",
  "phone": " 051-291-6357 ",
  "address": "부산광역시 사하구 낙동대로563번안길 2 (하단동) ",
  "type": "1종보통, 2종보통(수동), 2종보통(자동)",
  "home page": "http://www.wbusan.co.kr/",
  "lat": 128.962197,
  "lng": 35.1128722
 },
 {
  "id": 205,
  "name": "하이자동차운전전문학원 ",
  "phone": " 051-851-0007 ",
  "address": "부산광역시 연제구 마곡천로 70 (연산동) ",
  "type": "1종보통, 2종보통(자동)",
  "home page": "http://xn--zo5btn4nf45b.com/",
  "lat": 129.087015,
  "lng": 35.1680025
 },
 {
  "id": 206,
  "name": "영도자동차운전전문학원 ",
  "phone": " 051-412-0500 ",
  "address": "부산광역시 영도구 조내기로 68 (청학동) ",
  "type": "1종보통, 2종보통(수동), 2종보통(자동)",
  "lat": 129.06643,
  "lng": 35.0859983
 },
 {
  "id": 207,
  "name": "명진자동차운전전문학원 ",
  "phone": " 051-746-3737 ",
  "address": "부산광역시 해운대구 센텀남대로 20 (우동) ",
  "type": "1종보통, 2종보통(자동)",
  "home page": "http://www.yesmj.co.kr",
  "lat": 129.128643,
  "lng": 35.1660077
 },
 {
  "id": 208,
  "name": "흥국자동차운전전문학원 ",
  "phone": " 051-731-6611 ",
  "address": "부산광역시 해운대구 양운로37번길 28 (중동) ",
  "type": "1종보통, 2종보통(자동)",
  "home page": "https://www.cafe.daum.net/okhk.",
  "lat": 129.175623,
  "lng": 35.1660113
 },
 {
  "id": 209,
  "name": "광연자동차운전전문학원 ",
  "phone": " 02-481-6000 ",
  "address": "서울특별시 강남구 헌릉로637길 20-6 (세곡동) ",
  "type": "대형, 1종보통, 2종보통(수동), 2종보통(자동), 2종소형, 원동기",
  "home page": "http://www.kydriving.co.kr/",
  "lat": 127.109413,
  "lng": 37.466083
 },
 {
  "id": 210,
  "name": "삼일자동차운전전문학원 ",
  "phone": " 02-451-3131 ",
  "address": "서울특별시 강남구 헌릉로 736 (세곡동) ",
  "type": "대형, 1종보통, 2종보통(수동), 2종보통(자동), 2종소형",
  "home page": "http://www.samilcar.co.kr/",
  "lat": 127.12013,
  "lng": 37.4669016
 },
 {
  "id": 211,
  "name": "서울자동차운전전문학원 ",
  "phone": " 02-2665-5959 ",
  "address": "서울특별시 강서구 남부순환로 222 (외발산동)  ",
  "type": "대형, 소형견인차, 1종보통, 2종보통(수동), 2종보통(자동), 2종소형",
  "home page": "http://www.seouldriver.co.kr/",
  "lat": 126.819651,
  "lng": 37.545686
 },
 {
  "id": 212,
  "name": "신도림자동차운전전문학원 ",
  "phone": " 02-2672-8500 ",
  "address": "서울특별시 구로구 신도림로19길 68 ",
  "type": "1종보통, 2종보통(수동), 2종보통(자동), 2종소형, 원동기",
  "home page": "http://www.sindolim.co.kr/",
  "lat": 126.881522,
  "lng": 37.5126804
 },
 {
  "id": 213,
  "name": "온수역자동차운전전문학원 ",
  "phone": " 02-2686-2031 ",
  "address": "서울특별시 구로구 부일로1가길 18-44 (온수동)  ",
  "type": "1종보통, 2종보통(수동), 2종보통(자동)",
  "home page": "http://www.carist.com",
  "lat": 126.818004,
  "lng": 37.4929661
 },
 {
  "id": 214,
  "name": "녹천자동차운전전문학원 ",
  "phone": " 02-903-3131 ",
  "address": "서울특별시 노원구 마들로5길 91 (월계동)  ",
  "type": "1종보통, 2종보통(수동), 2종보통(자동)",
  "home page": "http://www.ncdrive.co.kr/",
  "lat": 127.051317,
  "lng": 37.6434011
 },
 {
  "id": 215,
  "name": "창동자동차운전전문학원 ",
  "phone": " 02-907-7744 ",
  "address": "서울특별시 도봉구 도봉로136길 61 (창동) ",
  "type": "1종보통, 2종보통(수동), 2종보통(자동)",
  "home page": "https://hidi.co.kr/",
  "lat": 127.044188,
  "lng": 37.660126
 },
 {
  "id": 216,
  "name": "사당자동차운전전문학원 ",
  "phone": " 02-521-1637 ",
  "address": "서울특별시 서초구 과천대로 904-6 (방배동) ",
  "type": "1종보통, 2종보통(수동), 2종보통(자동)",
  "home page": "http://sadangdrive.com",
  "lat": 126.98403,
  "lng": 37.4716092
 },
 {
  "id": 217,
  "name": "양재자동차운전전문학원 ",
  "phone": " 02-575-9500 ",
  "address": "서울특별시 서초구 남부순환로342길 62-26 (양재동)  ",
  "type": "1종보통, 2종보통(수동), 2종보통(자동)",
  "home page": "http://www.yangjaecar.co.kr/",
  "lat": 127.026007,
  "lng": 37.4792845
 },
 {
  "id": 218,
  "name": "중랑자동차운전전문학원 ",
  "phone": " 02-494-3355 ",
  "address": "서울특별시 중랑구 상봉로 117 (상봉동) ",
  "type": "1종보통, 2종보통(수동), 2종보통(자동)",
  "home page": "http://www.jndriver.com",
  "lat": 127.092435,
  "lng": 37.5965615
 },
 {
  "id": 219,
  "name": "신관자동차운전전문학원 ",
  "phone": " 044-881-1588, 0505 ",
  "address": "세종특별자치시 장군면 장기초교길 76-15 (은용리) ",
  "type": "대형, 1종보통, 2종보통(수동), 2종보통(자동)",
  "home page": "https://www.skdriveacademy.modoo.at",
  "lat": 127.212074,
  "lng": 36.4926268
 },
 {
  "id": 220,
  "name": "세종현대자동차운전전문학원 ",
  "phone": " 044-863-5509 ",
  "address": "세종특별자치시 전동면 하노장5길 2 ",
  "type": "1종보통, 2종보통(자동)",
  "home page": "http://www.sejongdriving.co.kr/",
  "lat": 127.269533,
  "lng": 36.6521122
 },
 {
  "id": 221,
  "name": "문화자동차운전전문학원 ",
  "phone": " 044-863-0844 ",
  "address": "세종특별자치시 조치원읍 새내로 223 (서창리) ",
  "type": "대형, 대형견인차, 구난차, 1종보통, 2종보통(수동), 2종보통(자동)",
  "lat": 127.295246,
  "lng": 36.6113385
 },
 {
  "id": 222,
  "name": "신삼성자동차운전전문학원 ",
  "phone": " 052-260-0003 ",
  "address": "울산광역시 남구 꽃대나리로 66 (야음동) ",
  "type": "대형, 대형견인차, 1종보통, 2종보통(수동), 2종보통(자동), 2종소형",
  "lat": 129.337033,
  "lng": 35.5329693
 },
 {
  "id": 223,
  "name": "신정자동차운전전문학원 ",
  "phone": " 052-268-3600 ",
  "address": "울산광역시 남구 온산로 804 (두왕동) ",
  "type": "1종보통, 2종보통(수동), 2종보통(자동)",
  "home page": "http://www.sjdriving.co.kr",
  "lat": 129.307148,
  "lng": 35.4982681
 },
 {
  "id": 224,
  "name": "울산자동차운전전문학원 ",
  "phone": " 052-287-6000 ",
  "address": "울산광역시 북구 효성로 48 (효문동) ",
  "type": "대형, 1종보통, 2종보통(수동), 2종보통(자동), 2종소형",
  "lat": 129.36969,
  "lng": 35.5620575
 },
 {
  "id": 225,
  "name": "호계자동차운전전문학원 ",
  "phone": " 052-286-0707 ",
  "address": "울산광역시 북구 산업로 1450 (신천동) ",
  "type": "1종보통, 2종보통(수동), 2종보통(자동)",
  "home page": "http://www.hgdrive.co.kr/",
  "lat": 129.345814,
  "lng": 35.6368424
 },
 {
  "id": 226,
  "name": "신진자동차운전전문학원 ",
  "phone": " 052-225-7700 ",
  "address": "울산광역시 울주군 웅촌면 웅촌로 601 (대복리) ",
  "type": "대형, 1종보통, 2종보통(수동), 2종보통(자동)",
  "home page": "https://www.blog.naver.com/shinjin7700",
  "lat": 129.218494,
  "lng": 35.4807194
 },
 {
  "id": 227,
  "name": "언양자동차운전전문학원 ",
  "phone": " 052-264-2000 ",
  "address": "울산광역시 울주군 언양읍 언양로 146-9 (어음리) ",
  "type": "대형, 1종보통, 2종보통(수동), 2종보통(자동)",
  "home page": "http://www.0522642000.ussoft.kr/",
  "lat": 129.141488,
  "lng": 35.5549817
 },
 {
  "id": 228,
  "name": "강화자동차운전전문학원 ",
  "phone": " 032-932-2176 ",
  "address": "인천광역시 강화군 선원면 강화동로 984 (냉정리) ",
  "type": "1종보통, 2종보통(수동), 2종보통(자동)",
  "home page": "http://강화자동차운전학원.gajagaja.co.kr",
  "lat": 126.475706,
  "lng": 37.7181828
 },
 {
  "id": 229,
  "name": "거성자동차운전전문학원 ",
  "phone": " 032-543-3399 ",
  "address": "인천광역시 계양구 봉오대로894번길 33-12 (서운동) ",
  "type": "대형, 소형견인차, 1종보통, 2종보통(수동), 2종보통(자동)",
  "home page": "http://www.geosungds.co.kr",
  "lat": 126.750008,
  "lng": 37.527133
 },
 {
  "id": 230,
  "name": "서울신진자동차운전전문학원 ",
  "phone": " 032-543-7070 ",
  "address": "인천광역시 계양구 아나지로 561 (서운동) ",
  "type": "대형, 소형견인차, 1종보통, 2종보통(수동), 2종보통(자동)",
  "home page": "http://www.sinjindrive.kr",
  "lat": 126.755622,
  "lng": 37.526388
 },
 {
  "id": 231,
  "name": "연세자동차운전전문학원 ",
  "phone": " 032-507-7900 ",
  "address": "인천광역시 계양구 장제로 992 (박촌동) ",
  "type": "1종보통, 2종보통(수동), 2종보통(자동)",
  "home page": "http://www.yonsei-car.com",
  "lat": 126.745958,
  "lng": 37.5536225
 },
 {
  "id": 232,
  "name": "한양자동차운전전문학원 ",
  "phone": " 032-507-6200 ",
  "address": "인천광역시 계양구 장제로 988 (박촌동) ",
  "type": "대형, 소형견인차, 1종보통, 2종보통(수동), 2종보통(자동), 2종소형, 원동기",
  "home page": "http://www.hydriver.kr",
  "lat": 126.746005,
  "lng": 37.5533162
 },
 {
  "id": 233,
  "name": "효성자동차운전전문학원 ",
  "phone": " 032-551-7000 ",
  "address": "인천광역시 계양구 새풀로8번길 14 (효성동) ",
  "type": "대형, 1종보통, 2종보통(수동), 2종보통(자동)",
  "home page": "http://www.5517000.com",
  "lat": 126.701363,
  "lng": 37.5241362
 },
 {
  "id": 234,
  "name": "시엘자동차운전전문학원 ",
  "phone": " 032-867-7070 ",
  "address": "인천광역시 남구 소성로 34 (용현동) ",
  "type": "대형, 대형견인차, 1종보통, 2종보통(수동), 2종보통(자동), 2종소형, 원동기",
  "home page": "https://clds.modoo.at/",
  "lat": 126.652637,
  "lng": 37.446958
 },
 {
  "id": 235,
  "name": "인천자동차운전전문학원 ",
  "phone": " 032-715-6111 ",
  "address": "인천광역시 남구 매소흘로271번길 7 (학익동) ",
  "type": "1종보통, 2종보통(수동), 2종보통(자동)",
  "lat": 126.652757,
  "lng": 37.4454807
 },
 {
  "id": 236,
  "name": "동아자동차운전전문학원 ",
  "phone": " 032-446-1100 ",
  "address": "인천광역시 남동구 청능대로 534번길 39 (고잔동) ",
  "type": "1종보통, 2종보통(수동), 2종보통(자동)",
  "home page": "http://www.dongacar.co.kr",
  "lat": 126.720465,
  "lng": 37.3986103
 },
 {
  "id": 237,
  "name": "인기자동차운전전문학원 ",
  "phone": " 032-446-1199 ",
  "address": "인천광역시 남동구 논현고잔로88번길 19 (고잔동) ",
  "type": "1종보통, 2종보통(수동), 2종보통(자동), 2종소형, 원동기",
  "home page": "http://inchondrive.co.kr",
  "lat": 126.713752,
  "lng": 37.3908725
 },
 {
  "id": 238,
  "name": "주신자동차운전전문학원 ",
  "phone": " 032-866-7510 ",
  "address": "인천광역시 미추홀구 노적산로 66-36 (학익동) ",
  "type": "대형, 1종보통, 2종보통(수동), 2종보통(자동), 2종소형, 원동기",
  "home page": "http://www.zushincar.co.kr",
  "lat": 126.655235,
  "lng": 37.4398387
 },
 {
  "id": 239,
  "name": "일신자동차운전전문학원 ",
  "phone": " 032-513-1313 ",
  "address": "인천광역시 부평구 무네미로 522 (구산동) ",
  "type": "1종보통, 2종보통(수동), 2종보통(자동)",
  "home page": "http://www.isdrive.co.kr",
  "lat": 126.753438,
  "lng": 37.4821354
 },
 {
  "id": 240,
  "name": "대우자동차운전전문학원 ",
  "phone": " 032-561-5500 ",
  "address": "인천광역시 서구 호두산로 26",
  "type": "대형, 1종보통, 2종보통(수동), 2종보통(자동)",
  "home page": "http://www.dwdrive.kr",
  "lat": 126.647925,
  "lng": 37.5452158
 },
 {
  "id": 241,
  "name": "중앙자동차운전전문학원 ",
  "phone": " 032-568-0881 ",
  "address": "인천광역시 서구 드림로 285(백석동) ",
  "type": "대형, 대형견인차, 소형견인차, 1종보통, 2종보통(수동), 2종보통(자동), 2종소형, 원동기",
  "home page": "https://jadrive.modoo.at/",
  "lat": 126.671061,
  "lng": 37.5848181
 },
 {
  "id": 242,
  "name": "한성자동차운전전문학원 ",
  "phone": " 032-581-2222 ",
  "address": "인천광역시 서구 중봉대로 266 (석남동) ",
  "type": "대형, 1종보통, 2종보통(수동), 2종보통(자동), 2종소형, 원동기",
  "home page": "http://www.hansungdrive.com",
  "lat": 126.649301,
  "lng": 37.5029002
 },
 {
  "id": 243,
  "name": "강진자동차운전전문학원 ",
  "phone": " 061-433-4070 ",
  "address": "전라남도 강진군 성전면 송계로 629-21 (금당리) ",
  "type": "대형, 1종보통, 2종보통(수동), 2종보통(자동)",
  "home page": "http://cafe.naver.com/4334070",
  "lat": 126.726521,
  "lng": 34.6740046
 },
 {
  "id": 244,
  "name": "고흥자동차운전전문학원 ",
  "phone": " 061-835-3161 ",
  "address": "전라남도 고흥군 고흥읍 송곡길 4-9 (남계리) ",
  "type": "대형, 1종보통, 2종보통(수동), 2종보통(자동)",
  "lat": 127.296947,
  "lng": 34.6224311
 },
 {
  "id": 245,
  "name": "천일자동차운전전문학원 ",
  "phone": " 061-363-2200 ",
  "address": "전라남도 곡성군 곡성읍 곡고로 277 (신리) ",
  "type": "대형, 1종보통, 2종보통(수동), 2종보통(자동)",
  "home page": "http://www.1001drive.co.kr",
  "lat": 127.324718,
  "lng": 35.2936628
 },
 {
  "id": 246,
  "name": "동광양자동차운전전문학원 ",
  "phone": " 061-794-8088 ",
  "address": "전라남도 광양시 도이1길 89 (도이동) ",
  "type": "1종보통, 2종보통(수동), 2종보통(자동)",
  "lat": 127.669941,
  "lng": 34.928854
 },
 {
  "id": 247,
  "name": "나주자동차운전전문학원 ",
  "phone": " 061-336-6611 ",
  "address": "전라남도 나주시 다시면 구진포로 28 (가운리) ",
  "type": "대형, 1종보통, 2종보통(수동), 2종보통(자동)",
  "home page": "https://www.najudriving.com/",
  "lat": 126.670205,
  "lng": 35.0079942
 },
 {
  "id": 248,
  "name": "삼성자동차운전전문학원 ",
  "phone": " 061-337-6663 ",
  "address": "전라남도 나주시 산포면 산남로 131 (등정리) ",
  "type": "1종보통, 2종보통(수동), 2종보통(자동)",
  "home page": "http://samsungdriving.modoo.at",
  "lat": 126.826851,
  "lng": 35.0455563
 },
 {
  "id": 249,
  "name": "새천년자동차운전전문학원 ",
  "phone": " 061-337-8332 ",
  "address": "전라남도 나주시 왕곡면 고분로 1465 ",
  "type": "대형, 소형견인차, 1종보통, 2종보통(자동), 2종소형",
  "home page": "http://mydriving.co.kr/",
  "lat": 126.697563,
  "lng": 34.9658724
 },
 {
  "id": 250,
  "name": "아시아자동차운전전문학원  ",
  "phone": " 061-383-5777 ",
  "address": "전라남도 담양군 담양읍 운교길 43 (운교리) ",
  "type": "대형, 1종보통, 2종보통(수동), 2종보통(자동)",
  "home page": "http://www.asiadrive.co.kr/",
  "lat": 126.979441,
  "lng": 35.3317594
 },
 {
  "id": 251,
  "name": "우양자동차운전전문학원 ",
  "phone": " 061-381-0381 ",
  "address": "전라남도 담양군 봉산면 죽향대로 729 (기곡리) ",
  "type": "대형, 대형견인차, 소형견인차, 1종보통, 2종보통(수동), 2종보통(자동), 2종소형",
  "home page": "http://www.wooyang21.co.kr",
  "lat": 126.972961,
  "lng": 35.273604
 },
 {
  "id": 252,
  "name": "남경자동차운전전문학원 ",
  "phone": " 061-243-7000 ",
  "address": "전라남도 목포시 선곡로 20 (옥암동) ",
  "type": "대형, 대형견인차, 1종보통, 2종보통(수동), 2종보통(자동)",
  "home page": "http://www.nkdrive.com",
  "lat": 126.431053,
  "lng": 34.8165822
 },
 {
  "id": 253,
  "name": "호남자동차운전전문학원 ",
  "phone": " 061-277-1002 ",
  "address": "전라남도 목포시 대양로109번길 39 (연산동) ",
  "type": "대형, 1종보통, 2종보통(수동), 2종보통(자동)",
  "home page": "http://www.hndrive.co.kr",
  "lat": 126.392505,
  "lng": 34.8253912
 },
 {
  "id": 254,
  "name": "목포자동차운전전문학원 ",
  "phone": " 061-454-1183 ",
  "address": "전라남도 무안군 청계면 영산로 1743-27 (도림리) ",
  "type": "1종보통, 2종보통(수동), 2종보통(자동)",
  "home page": "http://mpdrive.co.kr/",
  "lat": 126.426905,
  "lng": 34.9117216
 },
 {
  "id": 255,
  "name": "무안자동차운전전문학원 ",
  "phone": " 061-454-2508 ",
  "address": "전라남도 무안군 망운면 현해로 195 (목동리) ",
  "type": "1종보통, 2종보통(수동), 2종보통(자동)",
  "lat": 126.399779,
  "lng": 35.0225304
 },
 {
  "id": 256,
  "name": "상무자동차운전전문학원 ",
  "phone": " 061-858-1700 ",
  "address": "전라남도 보성군 벌교읍 조정래길 210-27 ",
  "type": "대형, 대형견인차, 구난차, 1종보통, 2종보통(자동), 2종소형",
  "home page": "http://www.상무자동차.com/",
  "lat": 127.341226,
  "lng": 34.8589632
 },
 {
  "id": 257,
  "name": "대우자동차운전전문학원 ",
  "phone": " 061-741-3434 ",
  "address": "전라남도 순천시 녹색로 1462 (대룡동) ",
  "type": "1종보통, 2종보통(수동), 2종보통(자동)",
  "lat": 127.486856,
  "lng": 34.9114434
 },
 {
  "id": 258,
  "name": "쌍용자동차운전전문학원 ",
  "phone": " 061-721-3331 ",
  "address": "전라남도 순천시 비례길 100 (조례동) ",
  "type": "대형, 1종보통, 2종보통(수동), 2종보통(자동)",
  "home page": "http://순천쌍용자동차학원.com",
  "lat": 127.538583,
  "lng": 34.9555644
 },
 {
  "id": 259,
  "name": "현대자동차운전전문학원 ",
  "phone": " 061-721-0700 ",
  "address": "전라남도 순천시 해룡면 순광로 234-16 (복성리) ",
  "type": "대형, 대형견인차, 1종보통, 2종보통(수동), 2종보통(자동)",
  "lat": 127.546013,
  "lng": 34.963229
 },
 {
  "id": 260,
  "name": "동성자동차운전전문학원 ",
  "phone": " 061-643-2222 ",
  "address": "전라남도 여수시 신월로 496-12 (신월동) ",
  "type": "대형, 대형견인차, 1종보통, 2종보통(수동), 2종보통(자동)",
  "home page": "http://dsschool.modoo.at/",
  "lat": 127.700807,
  "lng": 34.7235893
 },
 {
  "id": 261,
  "name": "아시아자동차운전전문학원 ",
  "phone": " 061-685-7372 ",
  "address": "전라남도 여수시 율촌면 봉정길 72-11 (취적리) ",
  "type": "대형, 1종보통, 2종보통(수동), 2종보통(자동)",
  "home page": "http://www.ok114.co.kr/0616857373",
  "lat": 127.594913,
  "lng": 34.8538976
 },
 {
  "id": 262,
  "name": "영진자동차운전전문학원 ",
  "phone": " 061-666-1111 ",
  "address": "전라남도 여수시 만성로 231 (만흥동) ",
  "type": "대형, 1종보통, 2종보통(수동), 2종보통(자동)",
  "lat": 127.720499,
  "lng": 34.7761789
 },
 {
  "id": 263,
  "name": "영광자동차운전전문학원 ",
  "phone": " 061-351-4033 ",
  "address": "전라남도 영광군 영광읍 함영로 3462 (녹사리) ",
  "type": "대형, 1종보통, 2종보통(수동), 2종보통(자동)",
  "lat": 126.506661,
  "lng": 35.2589766
 },
 {
  "id": 264,
  "name": "신세계자동차운전전문학원 ",
  "phone": " 061-472-4500 ",
  "address": "전라남도 영암군 신북면 신북공단로 23 ",
  "type": "대형, 소형견인차, 1종보통, 2종보통(자동), 2종소형",
  "home page": "http://sdrive.co.kr/",
  "lat": 126.704633,
  "lng": 34.9241649
 },
 {
  "id": 265,
  "name": "천관자동차운전전문학원 ",
  "phone": " 061-863-3333 ",
  "address": "전라남도 장흥군 장흥읍 장흥대로 3083 (덕제리) ",
  "type": "대형, 1종보통, 2종보통(수동), 2종보통(자동)",
  "home page": "https://blog.naver.com/xiflytoyou",
  "lat": 126.887387,
  "lng": 34.6478585
 },
 {
  "id": 266,
  "name": "대흥자동차운전전문학원 ",
  "phone": " 061-535-3441 ",
  "address": "전라남도 해남군 북평면 와룡길 37 (와룡리) ",
  "type": "대형, 대형견인차, 1종보통, 2종보통(수동), 2종보통(자동)",
  "home page": "http://010-3752-3441.jvt.kr",
  "lat": 126.647465,
  "lng": 34.430818
 },
 {
  "id": 267,
  "name": "신세계자동차운전전문학원 ",
  "phone": " 061-375-2020 ",
  "address": "전라남도 화순군 화순읍 정곡로 65 ",
  "type": "대형, 소형견인차, 1종보통, 2종보통(자동), 2종소형",
  "lat": 126.956205,
  "lng": 35.0460431
 },
 {
  "id": 268,
  "name": "모양자동차운전전문학원 ",
  "phone": " 063-562-1606 ",
  "address": "전라북도 고창군 아산면 봉덕길 4 (봉덕리) ",
  "type": "대형, 1종보통, 2종보통(수동), 2종보통(자동), 2종소형",
  "lat": 126.648694,
  "lng": 35.4356732
 },
 {
  "id": 269,
  "name": "군산자동차운전전문학원 ",
  "phone": " 063-467-1122 ",
  "address": "전라북도 군산시 개사길 58-2 (개사동) ",
  "type": "1종보통, 2종보통(수동), 2종보통(자동)",
  "lat": 126.679881,
  "lng": 35.9345327
 },
 {
  "id": 270,
  "name": "금강자동차운전전문학원 ",
  "phone": " 063-463-6561 ",
  "address": "전라북도 군산시 공단대로 179 (수송동) ",
  "type": "대형, 1종보통, 2종보통(수동), 2종보통(자동)",
  "lat": 126.72185,
  "lng": 35.9588179
 },
 {
  "id": 271,
  "name": "오성자동차운전전문학원 ",
  "phone": " 063-453-9121 ",
  "address": "전라북도 군산시 개정면 아동북길 55 (아동리) ",
  "type": "대형, 1종보통, 2종보통(수동), 2종보통(자동), 2종소형",
  "lat": 126.769658,
  "lng": 35.9823427
 },
 {
  "id": 272,
  "name": "퍼스트자동차운전전문학원 ",
  "phone": " 063-453-5881 ",
  "address": "전라북도 군산시 개정면 당산1길 20 ",
  "type": "대형, 1종보통, 2종보통(자동)",
  "home page": "http://www.firstcar.co.kr",
  "lat": 126.783535,
  "lng": 35.9762043
 },
 {
  "id": 273,
  "name": "벽성자동차운전전문학원 ",
  "phone": " 063-547-6200 ",
  "address": "전라북도 김제시 백산면 옥석길 2 (상정리) ",
  "type": "대형, 1종보통, 2종보통(수동), 2종보통(자동), 2종소형",
  "lat": 126.910304,
  "lng": 35.8359991
 },
 {
  "id": 274,
  "name": "아시아자동차운전전문학원 ",
  "phone": " 063-545-4800 ",
  "address": "전라북도 김제시 복죽로 538 (연정동) ",
  "type": "대형, 1종보통, 2종보통(수동), 2종보통(자동)",
  "home page": "https://www.asiadriving.co.kr/",
  "lat": 126.863727,
  "lng": 35.7993818
 },
 {
  "id": 275,
  "name": "남원자동차운전전문학원 ",
  "phone": " 063-631-0711 ",
  "address": "전라북도 남원시 요천로 1798-6 (월락동) ",
  "type": "대형, 대형견인차, 구난차, 1종보통, 2종보통(수동), 2종보통(자동), 2종소형",
  "home page": "http://www.namwondrive.com",
  "lat": 127.408616,
  "lng": 35.4219823
 },
 {
  "id": 276,
  "name": "참길자동차운전전문학원 ",
  "phone": " 063-581-0234 ",
  "address": "전라북도 부안군 부안읍 부령로 153-17 (신운리) ",
  "type": "대형, 1종보통, 2종보통(수동), 2종보통(자동)",
  "lat": 126.757111,
  "lng": 35.7354122
 },
 {
  "id": 277,
  "name": "가나안자동차운전전문학원 ",
  "phone": " 063-837-5000 ",
  "address": "전라북도 익산시 무왕로 779-26 (현영동) ",
  "type": "대형, 소형견인차, 1종보통, 2종보통(자동)",
  "home page": "https://blog.naver.com/canaancar",
  "lat": 126.94388,
  "lng": 35.965204
 },
 {
  "id": 278,
  "name": "강남자동차운전전문학원 ",
  "phone": " 063-834-8831 ",
  "address": "전라북도 익산시 부송로16길 40 (부송동) ",
  "type": "1종보통, 2종보통(수동), 2종보통(자동)",
  "home page": "http://www.kangnamcar.com",
  "lat": 126.991671,
  "lng": 35.9684889
 },
 {
  "id": 279,
  "name": "길자동차운전전문학원 ",
  "phone": " 063-831-0123 ",
  "address": "전라북도 익산시 신왕길 32 (석왕동) ",
  "type": "대형, 대형견인차, 1종보통, 2종보통(수동), 2종보통(자동), 2종소형, 원동기",
  "home page": "http://www.gildriving.co.kr/",
  "lat": 127.027715,
  "lng": 35.9732269
 },
 {
  "id": 280,
  "name": "스마일자동차운전전문학원 ",
  "phone": " 063-862-5000 ",
  "address": "전라북도 익산시 함열읍 용지길 17 (다송리) ",
  "type": "대형, 대형견인차, 1종보통, 2종보통(자동)",
  "home page": "https://blog.naver.com/feelgoodi1",
  "lat": 126.951637,
  "lng": 36.0405682
 },
 {
  "id": 281,
  "name": "우리자동차운전전문학원 ",
  "phone": " 063-834-1088 ",
  "address": "전라북도 익산시 서동로46길 134-32 (석암동) ",
  "type": "대형, 1종보통, 2종보통(수동), 2종보통(자동)",
  "home page": "http://www.wooridrive.net",
  "lat": 127.004109,
  "lng": 35.9373246
 },
 {
  "id": 282,
  "name": "이리자동차운전전문학원 ",
  "phone": " 063-852-2073 ",
  "address": "전라북도 익산시 익산대로33길 46-5 (신용동) ",
  "type": "대형, 1종보통, 2종보통(수동), 2종보통(자동)",
  "home page": "http://이리자동차운전전문학원.com/",
  "lat": 126.95089,
  "lng": 35.9771395
 },
 {
  "id": 283,
  "name": "그랜드자동차운전전문학원 ",
  "phone": " 063-226-0031 ",
  "address": "전라북도 전주시 완산구 콩쥐팥쥐로 1616 ",
  "type": "1종보통, 2종보통(자동)",
  "home page": "https://www.granddriving.com/",
  "lat": 127.075793,
  "lng": 35.8243304
 },
 {
  "id": 284,
  "name": "동성자동차운전전문학원 ",
  "phone": " 063-244-4660 ",
  "address": "전라북도 전주시 덕진구 장재길 4 (우아동3가) ",
  "type": "대형, 1종보통, 2종보통(수동), 2종보통(자동), 2종소형",
  "home page": "http://www.dsda.co.kr",
  "lat": 127.166196,
  "lng": 35.8463211
 },
 {
  "id": 285,
  "name": "동아자동차운전전문학원 ",
  "phone": " 063-211-1100 ",
  "address": "전라북도 전주시 덕진구 추천로 209 (팔복동) ",
  "type": "1종보통, 2종보통(수동), 2종보통(자동)",
  "home page": "http://063donga.com",
  "lat": 127.112698,
  "lng": 35.85462
 },
 {
  "id": 286,
  "name": "신삼천자동차운전전문학원 ",
  "phone": " 063-231-9933 ",
  "address": "전라북도 전주시 완산구 우림로 1001 (삼천동2가) ",
  "type": "대형, 대형견인차, 1종보통, 2종보통(수동), 2종보통(자동), 2종소형, 원동기",
  "home page": "http://www.삼천자동차운전학원.kr",
  "lat": 127.102669,
  "lng": 35.7772561
 },
 {
  "id": 287,
  "name": "신진자동차운전전문학원 ",
  "phone": " 063-212-7771 ",
  "address": "전라북도 전주시 덕진구 추천로 201 (팔복동) ",
  "type": "1종보통, 2종보통(수동), 2종보통(자동)",
  "home page": "http://sinjindrive7.co.kr",
  "lat": 127.112254,
  "lng": 35.8536651
 },
 {
  "id": 288,
  "name": "전북전주자동차운전전문학원 ",
  "phone": "063-255-2000 ",
  "address": "전라북도 전주시 덕진구 초포다리로 117-6 (호성동1가) ",
  "type": "1종보통, 2종보통(수동), 2종보통(자동)",
  "home page": "http://www.jbdrive.co.kr",
  "lat": 127.159262,
  "lng": 35.8665995
 },
 {
  "id": 289,
  "name": "전주자동차운전전문학원 ",
  "phone": " 063-212-1177 ",
  "address": "전라북도 전주시 덕진구 한내로 21 (팔복동) ",
  "type": "1종보통, 2종보통(수동), 2종보통(자동)",
  "home page": "http://seoshindrive.kr",
  "lat": 127.100663,
  "lng": 35.8716731
 },
 {
  "id": 290,
  "name": "한일자동차운전전문학원 ",
  "phone": " 063-214-2700 ",
  "address": "전라북도 전주시 덕진구 비석날로 25 (여의동) ",
  "type": "1종보통, 2종보통(수동), 2종보통(자동), 2종소형, 원동기",
  "home page": "http://www.hanilac.co.kr",
  "lat": 127.077371,
  "lng": 35.8544312
 },
 {
  "id": 291,
  "name": "구룡자동차운전전문학원 ",
  "phone": " 063-535-9400 ",
  "address": "전라북도 정읍시 용북길 57-11 (구룡동) ",
  "type": "1종보통, 2종보통(수동), 2종보통(자동)",
  "lat": 126.878007,
  "lng": 35.5789366
 },
 {
  "id": 292,
  "name": "정읍자동차운전전문학원 ",
  "phone": " 063-535-3192 ",
  "address": "전라북도 정읍시 충정로 638 (용계동) ",
  "type": "대형, 1종보통, 2종보통(수동), 2종보통(자동)",
  "lat": 126.818413,
  "lng": 35.5867471
 },
 {
  "id": 293,
  "name": "원영자동차운전전문학원 ",
  "phone": " 064-764-7991 ",
  "address": "제주특별자치도 서귀포시 남원읍 태위로398번길 31 (위미리)  ",
  "type": "1종보통, 2종보통(수동), 2종보통(자동)",
  "home page": "https://blog.naver.com/wonyoungcar88",
  "lat": 126.690329,
  "lng": 33.2720919
 },
 {
  "id": 294,
  "name": "제일자동차운전전문학원 ",
  "phone": " 064-738-0054 ",
  "address": "제주특별자치도 서귀포시 일주서로 1156-19 (상예동) ",
  "type": "1종보통, 2종보통(수동), 2종보통(자동)",
  "home page": "http://제일자동차.kr",
  "lat": 126.389715,
  "lng": 33.2664228
 },
 {
  "id": 295,
  "name": "삼다자동차운전전문학원 ",
  "phone": " 064-721-3198~99 ",
  "address": "제주특별자치도 제주시 명림로 219-13 (봉개동) ",
  "type": "1종보통, 2종보통(수동), 2종보통(자동)",
  "home page": "http://www.samdacar.com",
  "lat": 126.612353,
  "lng": 33.4667913
 },
 {
  "id": 296,
  "name": "제주자동차운전전문학원 ",
  "phone": " 064-711-4700 ",
  "address": "제주특별자치도 제주시 오등 13길 38 ",
  "type": "대형, 1종보통, 2종보통(수동), 2종보통(자동), 2종소형",
  "home page": "https://www.instagram.com/jejucar69",
  "lat": 126.528637,
  "lng": 33.4791044
 },
 {
  "id": 297,
  "name": "탐라자동차운전전문학원 ",
  "phone": " 064-744-5050",
  "address": "제주특별자치도 제주시 연사길 74-18 (오라2동) ",
  "type": "1종보통, 2종보통(수동), 2종보통(자동)",
  "lat": 126.509995,
  "lng": 33.4899682
 },
 {
  "id": 298,
  "name": "한라자동차운전전문학원 ",
  "phone": " 064-755-9900 ",
  "address": "제주특별자치도 제주시 간월동로5길 52 (아라2동)  ",
  "type": "1종보통, 2종보통(수동), 2종보통(자동)",
  "home page": "http://www.onbao.com/dbria/sub.html?cd_com=3125217",
  "lat": 126.547206,
  "lng": 33.4896864
 },
 {
  "id": 299,
  "name": "현대자동차운전전문학원 ",
  "phone": "064-799-0999 ",
  "address": "제주특별자치도 제주시 애월읍 평화로 2032-18 ",
  "type": "대형, 1종보통, 2종보통(자동), 2종소형, 원동기",
  "home page": "https://blog.naver.com/sanghunsa",
  "lat": 126.385185,
  "lng": 33.4037506
 },
 {
  "id": 300,
  "name": "서부자동차운전전문학원 ",
  "phone": " 042-841-5070 ",
  "address": "충청남도 계룡시 엄사면 계백로 3080-10 (유동리)",
  "type": "대형, 소형견인차, 1종보통, 2종보통(수동), 2종보통(자동), 2종소형",
  "home page": "http://www.sblicense.co.kr",
  "lat": 127.239839,
  "lng": 36.2798899
 },
 {
  "id": 301,
  "name": "공주자동차운전전문학원",
  "phone": " 041-855-3188 ",
  "address": "충청남도 공주시 소학길 17 (소학동) ",
  "type": "1종보통, 2종보통(수동), 2종보통(자동)",
  "home page": "https://kongjudrive.modoo.at",
  "lat": 127.15439,
  "lng": 36.450135
 },
 {
  "id": 302,
  "name": "금산자동차운전전문학원",
  "phone": " 041-754-4700 ",
  "address": "충남 금산군 금산읍 장자길 31",
  "type": "대형, 대형견인차, 소형견인차, 구난차, 1종보통, 2종보통(수동), 2종보통(자동), 2종소형, 원동기",
  "home page": "http://www.gumsancar.co.kr",
  "lat": 127.458722,
  "lng": 36.0973568
 },
 {
  "id": 303,
  "name": "건양자동차운전전문학원",
  "phone": " 041-742-7500",
  "address": "충청남도 논산시 은진면 탑정로 332-22 (교촌리) ",
  "type": "대형, 소형견인차, 1종보통, 2종보통(수동), 2종보통(자동)",
  "home page": "http://kydrive.edenstore.co.kr",
  "lat": 127.100782,
  "lng": 36.1695639
 },
 {
  "id": 304,
  "name": "당진자동차운전전문학원",
  "phone": " 041-355-3523 ",
  "address": "충청남도 당진시 송악읍 광명길 27 (광명리) ",
  "type": "1종보통, 2종보통(수동), 2종보통(자동)",
  "home page": "http://djcar.edenstore.co.kr",
  "lat": 126.714864,
  "lng": 36.894071
 },
 {
  "id": 305,
  "name": "충남자동차운전전문학원 ",
  "phone": " 041-352-0456 ",
  "address": "충청남도 당진시 원당로 141-10 (원당동) ",
  "type": "1종보통, 2종보통(수동), 2종보통(자동)",
  "home page": "https://cnauto.modoo.at/",
  "lat": 126.643177,
  "lng": 36.9131237
 },
 {
  "id": 306,
  "name": "합덕자동차운전전문학원",
  "phone": " 041-362-6175 ",
  "address": "충청남도 당진시 우강면 중방로 62-6 (송산리)",
  "type": "1종보통, 2종보통(수동), 2종보통(자동)",
  "lat": 126.762648,
  "lng": 36.8174662
 },
 {
  "id": 307,
  "name": "뉴보령현대자동차운전전문학원",
  "phone": " 041-931-3330 ",
  "address": "충청남도 보령시 대해로 173 (내항동) ",
  "type": "대형, 1종보통, 2종보통(수동), 2종보통(자동)",
  "lat": 126.582452,
  "lng": 36.3377177
 },
 {
  "id": 308,
  "name": "보령동양자동차운전전문학원",
  "phone": " 041-931-3000 ",
  "address": "충청남도 보령시 중앙로 187-66 (대천동) ",
  "type": "대형, 대형견인차, 소형견인차, 구난차, 1종보통, 2종보통(수동), 2종보통(자동), 2종소형",
  "home page": "http://www.drivea.net",
  "lat": 126.582529,
  "lng": 36.352371
 },
 {
  "id": 309,
  "name": "제일자동차운전전문학원",
  "phone": " 041-931-1515 ",
  "address": "충청남도 보령시 청소면 충서로 3660 (야현리) ",
  "type": "1종보통, 2종보통(수동), 2종보통(자동)",
  "home page": "http://www.041-931-1515.kti114.net",
  "lat": 126.588956,
  "lng": 36.4306683
 },
 {
  "id": 310,
  "name": "백제자동차운전전문학원",
  "phone": " 041-835-0708 ",
  "address": "충청남도 부여군 부여읍 왕릉로 244-7 (능산리) ",
  "type": "대형, 1종보통, 2종보통(수동), 2종보통(자동), 2종소형",
  "lat": 126.959804,
  "lng": 36.2721539
 },
 {
  "id": 311,
  "name": "서산자동차운전전문학원",
  "phone": " 041-665-7432 ",
  "address": "충청남도 서산시 소탐1로 83 (수석동) ",
  "type": "대형, 1종보통, 2종보통(수동), 2종보통(자동)",
  "home page": "http://www.seosandriving.co.kr",
  "lat": 126.493911,
  "lng": 36.7581146
 },
 {
  "id": 312,
  "name": "중앙자동차운전전문학원",
  "phone": " 041-664-3515 ",
  "address": "충청남도 서산시 쌍연북3길 17 (동문동)",
  "type": "1종보통, 2종보통(수동), 2종보통(자동)",
  "lat": 126.467769,
  "lng": 36.7844926
 },
 {
  "id": 313,
  "name": "현대자동차운전전문학원 ",
  "phone": " 041-663-5555",
  "address": "충청남도 서산시 음암면 중앙로 734 (유계리)",
  "type": "대형, 1종보통, 2종보통(수동), 2종보통(자동)",
  "lat": 126.512517,
  "lng": 36.7415671
 },
 {
  "id": 314,
  "name": "서해자동차운전전문학원",
  "phone": " 041-953-3468 ",
  "address": "충청남도 서천군 종천면 종판로 62 (랑평리)",
  "type": "대형, 1종보통, 2종보통(수동), 2종보통(자동)",
  "lat": 126.643548,
  "lng": 36.1150883
 },
 {
  "id": 315,
  "name": "삼성자동차운전전문학원",
  "phone": " 041-531-2255",
  "address": "충청남도 아산시 온천대로 1790-12 (남동) ",
  "type": "대형, 소형견인차, 1종보통, 2종보통(수동), 2종보통(자동)",
  "home page": "http://www.ssdriver.com",
  "lat": 127.034236,
  "lng": 36.7727631
 },
 {
  "id": 316,
  "name": "용화자동차운전전문학원 ",
  "phone": " 041-549-8891 ",
  "address": "충청남도 아산시 시민로 215 (용화동) ",
  "type": "1종보통, 2종보통(수동), 2종보통(자동)",
  "home page": "http://www.yhdrive.com",
  "lat": 126.993038,
  "lng": 36.7688746
 },
 {
  "id": 317,
  "name": "우석자동차운전전문학원",
  "phone": " 041-548-3600 ",
  "address": "충청남도 아산시 배방읍 배방로 194 (북수리) ",
  "type": "대형, 1종보통, 2종보통(수동), 2종보통(자동), 2종소형",
  "home page": "http://www.wsdrive.kr",
  "lat": 127.068329,
  "lng": 36.7694598
 },
 {
  "id": 318,
  "name": "예산자동차운전전문학원",
  "phone": " 041-331-4200 ",
  "address": "충청남도 예산군 오가면 오신로 244 (원천리)",
  "type": "대형, 1종보통, 2종보통(수동), 2종보통(자동), 2종소형",
  "home page": "http://www.yesandriving.co.kr",
  "lat": 126.785954,
  "lng": 36.6956083
 },
 {
  "id": 319,
  "name": "삼원자동차운전전문학원",
  "phone": " 041-622-1515",
  "address": "충청남도 천안시 서북구 성거읍 석문길 10-3 (요방리) ",
  "type": "1종보통, 2종보통(수동), 2종보통(자동)",
  "home page": "http://swdriving.co.kr",
  "lat": 127.181331,
  "lng": 36.8500364
 },
 {
  "id": 320,
  "name": "영일자동차운전전문학원",
  "phone": " 041-585-0155",
  "address": "충청남도 천안시 서북구 성환읍 성환2로 8-15 (매주리) ",
  "type": "1종보통, 2종보통(수동), 2종보통(자동)",
  "home page": "http://www.yidrive.co.kr",
  "lat": 127.130187,
  "lng": 36.9074846
 },
 {
  "id": 321,
  "name": "중앙삼성자동차운전전문학원",
  "phone": " 041-558-4411 ",
  "address": "충청남도 천안시 서북구 부대3길 7 (부대동) ",
  "type": "1종보통, 2종보통(수동), 2종보통(자동)",
  "home page": "http://www.jshw.co.kr",
  "lat": 127.15551,
  "lng": 36.8448824
 },
 {
  "id": 322,
  "name": "천안대성자동차운전전문학원 ",
  "phone": " 041-568-7070 ",
  "address": "충청남도 천안시 동남구 풍세로 839 (용곡동) ",
  "type": "대형, 소형견인차, 1종보통, 2종보통(수동), 2종보통(자동)",
  "home page": "http://www.dsdrive.co.kr",
  "lat": 127.143637,
  "lng": 36.7846313
 },
 {
  "id": 323,
  "name": "천안자동차운전전문학원",
  "phone": " 041-551-2420 ",
  "address": "충청남도 천안시 서북구 천안대로 962 (두정동) ",
  "type": "대형, 소형견인차, 1종보통, 2종보통(수동), 2종보통(자동), 2종소형",
  "home page": "http://www.cacar.kr",
  "lat": 127.154466,
  "lng": 36.8277268
 },
 {
  "id": 324,
  "name": "반도자동차운전전문학원 ",
  "phone": " 041-675-3040 ",
  "address": "충청남도 태안군 태안읍 서해로 2120 (인평리)",
  "type": "1종보통, 2종보통(수동), 2종보통(자동)",
  "lat": 126.339251,
  "lng": 36.7584989
 },
 {
  "id": 325,
  "name": "신홍성자동차운전전문학원 ",
  "phone": " 041-634-7077 ",
  "address": "충청남도 홍성군 홍성읍 충서로1216번길 6-16 (남장리) ",
  "type": "1종보통, 2종보통(수동), 2종보통(자동)",
  "lat": 126.658112,
  "lng": 36.583911
 },
 {
  "id": 326,
  "name": "단양자동차운전전문학원",
  "phone": " 043-422-4466 ",
  "address": "충청북도 단양군 매포읍 안동길 77 (안동리) ",
  "type": "1종보통, 2종보통(수동), 2종보통(자동)",
  "lat": 128.315669,
  "lng": 37.0315896
 },
 {
  "id": 327,
  "name": "보은자동차운전전문학원 ",
  "phone": " 043-543-8724",
  "address": "충청북도 보은군 수한면 정자말길 54-1 (병원리) ",
  "type": "1종보통, 2종보통(수동), 2종보통(자동)",
  "lat": 127.685759,
  "lng": 36.4807935
 },
 {
  "id": 328,
  "name": "동원자동차운전전문학원",
  "phone": " 043-731-7991 ",
  "address": "충청북도 옥천군 군북면 옥천로 1074 (이백리)",
  "type": "대형, 대형견인차, 1종보통, 2종보통(수동), 2종보통(자동), 2종소형",
  "home page": "http://www.driver21.co.kr",
  "lat": 127.531126,
  "lng": 36.3321505
 },
 {
  "id": 329,
  "name": "옥천자동차운전전문학원",
  "phone": " 043-733-3200 ",
  "address": "충청북도 옥천군 군서면 성왕로 854 (오동리) ",
  "type": "대형, 1종보통, 2종보통(수동), 2종보통(자동)",
  "home page": "http://www.3dayok.co.kr",
  "lat": 127.541097,
  "lng": 36.2986816
 },
 {
  "id": 330,
  "name": "한일자동차운전전문학원 ",
  "phone": " 043-872-2396 ",
  "address": "충청북도 음성군 음성읍 중리길 42 (신천리)",
  "type": "대형, 1종보통, 2종보통(수동), 2종보통(자동)",
  "lat": 127.676694,
  "lng": 36.9279547
 },
 {
  "id": 331,
  "name": "제천자동차운전전문학원",
  "phone": " 043-642-3551 ",
  "address": "충청북도 제천시 강저로15길 14 (강제동) ",
  "type": "대형, 대형견인차, 구난차, 1종보통, 2종보통(수동), 2종보통(자동)",
  "home page": "http://www.schooldriver.co.kr",
  "lat": 128.195256,
  "lng": 37.1223148
 },
 {
  "id": 332,
  "name": "현대자동차운전전문학원",
  "phone": " 043-647-1164 ",
  "address": "충청북도 제천시 내토로 959 (고암동) ",
  "type": "1종보통, 2종보통(수동), 2종보통(자동)",
  "lat": 128.232226,
  "lng": 37.1616617
 },
 {
  "id": 333,
  "name": "진천자동차운전전문학원",
  "phone": " 043-533-3593",
  "address": "충청북도 진천군 진천읍 문화6길 41-1 (장관리) ",
  "type": "대형, 소형견인차, 1종보통, 2종보통(수동), 2종보통(자동), 2종소형, 원동기",
  "home page": "http://www.jcdrive.co.kr",
  "lat": 127.433788,
  "lng": 36.8637677
 },
 {
  "id": 334,
  "name": "교원자동차운전전문학원",
  "phone": " 043-235-7060",
  "address": "충청북도 청주시 흥덕구 강내면 석화사인길 109-5 ",
  "type": "대형, 대형견인차, 소형견인차, 구난차, 1종보통, 2종보통(수동), 2종보통(자동), 2종소형, 원동기",
  "home page": "http://www.kyowoncar.com",
  "lat": 127.368144,
  "lng": 36.6294925
 },
 {
  "id": 335,
  "name": "금성자동차운전전문학원",
  "phone": " 043-296-3001 ",
  "address": "충청북도 청주시 서원구 구룡산로 228 (산남동) ",
  "type": "1종보통, 2종보통(수동), 2종보통(자동)",
  "lat": 127.469807,
  "lng": 36.6148443
 },
 {
  "id": 336,
  "name": "대영자동차운전전문학원",
  "phone": " 043-218-7701 ",
  "address": "충청북도 청주시 청원구 내수읍 구성길 17 (구성리) ",
  "type": "대형, 대형견인차, 소형견인차, 구난차, 1종보통, 2종보통(수동), 2종보통(자동), 2종소형, 원동기",
  "home page": "http://www.dydriving.co.kr",
  "lat": 127.504866,
  "lng": 36.6824746
 },
 {
  "id": 337,
  "name": "덕일자동차운전전문학원 ",
  "phone": " 043-214-2100 ",
  "address": "충청북도 청주시 청원구 내수읍 은곡묵방길 22-27 (은곡리) ",
  "type": "대형, 1종보통, 2종보통(수동), 2종보통(자동)",
  "home page": "http://dukilcar.com",
  "lat": 127.526975,
  "lng": 36.7089619
 },
 {
  "id": 338,
  "name": "삼성자동차운전전문학원 ",
  "phone": " 043-277-3388 ",
  "address": "충청북도 청주시 흥덕구 평동로 29 (향정동) ",
  "type": "1종보통, 2종보통(수동), 2종보통(자동)",
  "home page": "http://www.samsungdrive.com",
  "lat": 127.424725,
  "lng": 36.6535631
 },
 {
  "id": 339,
  "name": "상당자동차운전전문학원",
  "phone": " 043-288-9500",
  "address": "충청북도 청주시 상당구 목련로 106-72(운동동) ",
  "type": "1종보통, 2종보통(수동), 2종보통(자동)",
  "home page": "https://sddriving.modoo.at",
  "lat": 127.519519,
  "lng": 36.6001755
 },
 {
  "id": 340,
  "name": "아주자동차운전전문학원 ",
  "phone": " 043-237-9600 ",
  "address": "충청북도 청주시 서원구 남이면 양촌3길13 (양촌리) ",
  "type": "대형, 소형견인차, 1종보통, 2종보통(수동), 2종보통(자동)",
  "home page": "http://www.ajucar.co.kr",
  "lat": 127.472047,
  "lng": 36.5916044
 },
 {
  "id": 341,
  "name": "청주자동차운전전문학원 ",
  "phone": " 043-234-9200 ",
  "address": "충청북도 청주시 흥덕구 죽천로79번길 4 (복대동) ",
  "type": "1종보통, 2종보통(수동), 2종보통(자동)",
  "home page": "http://www.woonjeon.co.kr",
  "lat": 127.432416,
  "lng": 36.6388653
 },
 {
  "id": 342,
  "name": "충북자동차운전전문학원",
  "phone": " 043-211-2500",
  "address": "충청북도 청주시 청원구 사천로18번길 34 (사천동) ",
  "type": "1종보통, 2종보통(수동), 2종보통(자동)",
  "home page": "http://www.cbcar.kr",
  "lat": 127.480914,
  "lng": 36.6791312
 },
 {
  "id": 343,
  "name": "조양자동차운전전문학원",
  "phone": " 043-853-5801",
  "address": "충청북도 충주시 샘골길 26 (안림동) ",
  "type": "대형, 대형견인차, 1종보통, 2종보통(수동), 2종보통(자동)",
  "home page": "https://jydrive.modoo.at",
  "lat": 127.950343,
  "lng": 36.96755
 },
 {
  "id": 344,
  "name": "좋은자동차운전전문학원",
  "phone": " 043-856-8760 ",
  "address": "충청북도 충주시 중앙탑면 첨단산업로 1235 (가흥리) ",
  "type": "1종보통, 2종보통(수동), 2종보통(자동)",
  "lat": 127.864556,
  "lng": 37.069311
 },
 {
  "id": 345,
  "name": "중앙자동차운전전문학원",
  "phone": " 043-853-1601 ",
  "address": "충청북도 충주시 대소원면 완오신촌길 12 (만정리)",
  "type": "대형, 1종보통, 2종보통(수동), 2종보통(자동)",
  "home page": "http://www.jodrive.co.kr",
  "lat": 127.851035,
  "lng": 36.9658513
 }
]
