[
 {
  "id": 1,
  "name": "서울(마포)",
  "phone": "02-304-5900",
  "address": "서울특별시 마포구 마포나루길 256 (서울조종면허시험장)",
  "lat": 126.882801,
  "lng": 37.5623175
 },
 {
  "id": 2,
  "name": "서울(양화)",
  "phone": "02-2039-2346",
  "address": "서울특별시 영등포구 당산동 100-2",
  "lat": 126.904359,
  "lng": 37.5382897
 },
 {
  "id": 3,
  "name": "서울서초(반포)",
  "phone": "1522-1477",
  "address": "서울특별시 서초구 올림픽대로 2085-18",
  "lat": 126.904359,
  "lng": 37.5103353
 },
 {
  "id": 4,
  "name": "서울요트(마포)",
  "phone": "02-304-5900",
  "address": "서울특별시 마포구 마포나루길 256 (서울조종면허시험장)",
  "lat": 126.882801,
  "lng": 37.5623175
 },
 {
  "id": 5,
  "name": "부산(수영)",
  "phone": "051-742-0367",
  "address": "부산시 수영구 민락수변로 239번길 18 앞 해수면",
  "lat": 129.128815,
  "lng": 35.1629048
 },
 {
  "id": 6,
  "name": "부산요트(영도)",
  "phone": "051-410-5250",
  "address": "부산광역시 영도구 태종로 727 한국해양대학교 평생교육원(어울림관)",
  "lat": 129.088172,
  "lng": 35.0753167
 },
 {
  "id": 7,
  "name": "울산(남구)",
  "phone": "052-258-6115",
  "address": "울산광역시 남구 부두로 288 (여천동, 울산조종면허시험장)",
  "lat": 129.376255,
  "lng": 35.529671
 },
 {
  "id": 8,
  "name": "경기(가평)",
  "phone": "031-584-5700",
  "address": "경기도 가평군 호반로 162 (경기조종면허시험장)",
  "lat": 127.427659,
  "lng": 37.726107
 },
 {
  "id": 9,
  "name": "경기(시흥)",
  "phone": "031-496-0022",
  "address": "경기 시흥시 거북섬5길 16 (거북섬프라자 308호)",
  "lat": 126.683636,
  "lng": 37.3210295
 },
 {
  "id": 10,
  "name": "경기(여주)",
  "phone": "031-880-4082",
  "address": "경기도 여주시 강변북로 163 (현암동)",
  "lat": 127.628814,
  "lng": 37.3070793
 },
 {
  "id": 11,
  "name": "강원(춘천)",
  "phone": "033-252-9097",
  "address": "강원도 춘천시 고산배터길 27-6 (사농동, 강원조종면허시험장)",
  "lat": 127.714868,
  "lng": 37.9128877
 },
 {
  "id": 12,
  "name": "강원요트(삼척)",
  "phone": "033-576-0611",
  "address": "강원도 삼척시 근덕면 덕산해변길 104 (덕산리, 해양관광레져스포츠센터)",
  "lat": 129.240579,
  "lng": 37.3860713
 },
 {
  "id": 13,
  "name": "충북(충주)",
  "phone": "043-856-3119",
  "address": "충북 충주시 동량면 미라실로 763",
  "lat": 128.054167,
  "lng": 37.0066177
 },
 {
  "id": 14,
  "name": "충남(아산)",
  "phone": "041-541-9423",
  "address": "충청남도 아산시 신정호길 15-14 (방축동)",
  "lat": 126.978073,
  "lng": 36.7725581
 },
 {
  "id": 15,
  "name": "충남(태안)",
  "phone": "041-674-8101",
  "address": "충청남도 태안군 남면 곰섬로 314 (신온리)",
  "lat": 126.299487,
  "lng": 36.5943776
 },
 {
  "id": 16,
  "name": "전북(김제)",
  "phone": "063-548-7774",
  "address": "전북 김제시 만경읍 만경로 750(전북조종면허시험장)",
  "lat": 126.816301,
  "lng": 35.8467962
 },
 {
  "id": 17,
  "name": "전남(나주)",
  "phone": "061-337-2009",
  "address": "전라남도 나주시 다도면 나주호로 558-314 (방산리, 중흥골드스파&리조트)",
  "lat": 126.871296,
  "lng": 34.9481822
 },
 {
  "id": 18,
  "name": "전남(여수)",
  "phone": "061-683-6458",
  "address": "전라남도 여수시 화양면 화양로 1436-29 (남해부표관리사무소 내) (나진리)",
  "lat": 127.621066,
  "lng": 34.7088233
 },
 {
  "id": 19,
  "name": "전남(영암)",
  "phone": "061-462-0741",
  "address": "전남 영암군 삼호읍 나불외도로 126-45",
  "lat": 126.464846,
  "lng": 34.7847454
 },
 {
  "id": 20,
  "name": "전남요트(목포)",
  "phone": "061-240-7147",
  "address": "전라남도 목포시 해양대학로 91 (죽교동, 해양대학교)",
  "lat": 126.364614,
  "lng": 34.7934745
 },
 {
  "id": 21,
  "name": "경북(안동)",
  "phone": "054-821-2020",
  "address": "경북 안동시 석주로 514(안동수상레저)",
  "lat": 128.781681,
  "lng": 36.5766872
 },
 {
  "id": 22,
  "name": "경북(영덕)",
  "phone": "054-732-8884",
  "address": "경북 영덕군 강구면 강영로 33 (오십천마리나)",
  "lat": 129.387775,
  "lng": 36.3591481
 },
 {
  "id": 23,
  "name": "경북(포항)",
  "phone": "054-270-4492",
  "address": "포항시 남구 희망대로 810 (대도동,포항종합공설운동장)",
  "lat": 129.363458,
  "lng": 36.0091107
 },
 {
  "id": 24,
  "name": "경북요트(영덕)",
  "phone": "054-732-8884",
  "address": "경북 영덕군 강구면 강영로 33 (오십천마리나)",
  "lat": 129.387775,
  "lng": 36.3591481
 },
 {
  "id": 25,
  "name": "경남(마산)",
  "phone": "055-271-9977",
  "address": "경남 창원시 마산합포구 진동면 광암회단지길 42",
  "lat": 128.499698,
  "lng": 35.1029709
 },
 {
  "id": 26,
  "name": "경남(사천)",
  "phone": "055-834-1002",
  "address": "경남 사천시 해안관광로 339",
  "lat": 128.040399,
  "lng": 34.9628722
 },
 {
  "id": 27,
  "name": "경남(통영)",
  "phone": "055-648-8083",
  "address": "경남 통영시 평인일주로 478",
  "lat": 128.38248,
  "lng": 34.85421
 },
 {
  "id": 28,
  "name": "경남(합천)",
  "phone": "055-933-1973",
  "address": "경남 합천군 봉산면 서부로 4270-8",
  "lat": 128.0397,
  "lng": 35.6224111
 },
 {
  "id": 29,
  "name": "경남요트(거제)",
  "phone": "055-632-2955",
  "address": "경남 거제시 남부면 남부해안로 1035",
  "lat": 128.585098,
  "lng": 34.7632427
 },
 {
  "id": 30,
  "name": "경남요트(통영)",
  "phone": "055-641-5051",
  "address": "경남 통영시 도남로 269-28",
  "lat": 128.435024,
  "lng": 34.8281941
 },
 {
  "id": 31,
  "name": "제주(이호)",
  "phone": "064-743-6232",
  "address": "제주시 서해안로 45-18",
  "lat": 126.454959,
  "lng": 33.4999886
 },
 {
  "id": 32,
  "name": "제주요트(도두)",
  "phone": "064-743-7536",
  "address": "제주특별자치도 도두항 서길 34",
  "lat": 126.464928,
  "lng": 33.5063343
 }
]